,city,city_ascii,state_id,state_name,county_fips,county_name,lat,lng,FUNCSTAT,2010,2011,2012,2013,2014,2015,2016
0,Prattville,Prattville,AL,Alabama,1001,Autauga,32.4604,-86.4589,A,54742,55255,55027,54792,54977,55035,55416
1,Spanish Fort,Spanish Fort,AL,Alabama,1003,Baldwin,30.7256,-87.8602,A,183199,186653,190403,195147,199745,203690,208563
2,Batesville,Batesville,AL,Alabama,1005,Barbour,32.009,-85.311,A,27348,27326,27132,26938,26763,26270,25965
3,Eoline,Eoline,AL,Alabama,1007,Bibb,32.9951,-87.2322,A,22861,22736,22645,22501,22511,22561,22643
4,Hendrix,Hendrix,AL,Alabama,1009,Blount,34.0382,-86.4533,A,57376,57707,57772,57746,57621,57676,57704
5,Shopton,Shopton,AL,Alabama,1011,Bullock,32.1171,-85.9422,A,10892,10722,10654,10576,10712,10455,10362
6,Bolling,Bolling,AL,Alabama,1013,Butler,31.7254,-86.7058,A,20938,20848,20665,20330,20283,20126,19998
7,Ohatchee,Ohatchee,AL,Alabama,1015,Calhoun,33.7877,-86.0278,A,118468,117736,117208,116475,115837,115285,114611
8,Lanett,Lanett,AL,Alabama,1017,Chambers,32.8576,-85.2079,A,34101,34006,34084,34123,33996,34043,33843
9,Forney,Forney,AL,Alabama,1019,Cherokee,34.0862,-85.4619,A,25977,26073,26017,26074,25944,25726,25725
10,Verbena,Verbena,AL,Alabama,1021,Chilton,32.7499,-86.5114,A,43675,43758,43693,43769,43874,43809,43941
11,Silas,Silas,AL,Alabama,1023,Choctaw,31.7678,-88.3258,A,13840,13610,13549,13384,13310,13201,12993
12,Salitpa,Salitpa,AL,Alabama,1025,Clarke,31.6296,-88.02,A,25762,25549,25148,25105,24862,24726,24392
13,Delta,Delta,AL,Alabama,1027,Clay,33.447,-85.6746,A,13882,13676,13461,13464,13503,13495,13492
14,Ranburne,Ranburne,AL,Alabama,1029,Cleburne,33.5259,-85.339,A,14975,14976,14928,15031,15076,14996,14924
15,Enterprise,Enterprise,AL,Alabama,1031,Coffee,31.3276,-85.8459,A,50183,50484,51180,50729,50757,51063,51226
16,Sheffield,Sheffield,AL,Alabama,1033,Colbert,34.7557,-87.7008,A,54521,54460,54493,54456,54427,54295,54216
17,Evergreen,Evergreen,AL,Alabama,1035,Conecuh,31.4379,-86.9584,A,13209,13193,13007,12866,12621,12597,12395
18,Goodwater,Goodwater,AL,Alabama,1037,Coosa,33.0608,-86.0516,A,11758,11369,11201,11058,10794,10687,10581
19,Libertyville,Libertyville,AL,Alabama,1039,Covington,31.2428,-86.46,A,37801,38066,37842,37890,37795,37661,37458
20,Rutledge,Rutledge,AL,Alabama,1041,Crenshaw,31.724,-86.302,A,13857,13903,13920,13874,13898,13876,13913
21,The Colony,The Colony,AL,Alabama,1043,Cullman,33.9457,-86.9017,A,80476,80457,80351,80731,81167,81858,82471
22,Clopton,Clopton,AL,Alabama,1045,Dale,31.6085,-85.4299,A,50360,50119,50296,49753,49389,49370,49226
23,Valley Grande,Valley Grande,AL,Alabama,1047,Dallas,32.4862,-87.0305,A,43820,43207,42748,41950,41532,40893,40008
24,Lakeview,Lakeview,AL,Alabama,1049,DeKalb,34.3916,-85.9757,A,71143,71389,70961,70882,70947,70996,70900
25,Holtville,Holtville,AL,Alabama,1051,Elmore,32.6314,-86.3268,A,79573,80030,80291,80661,80794,81238,81799
26,Flomaton,Flomaton,AL,Alabama,1053,Escambia,31.0127,-87.2541,A,38314,38227,38063,37877,37878,37827,37728
27,Hokes Bluff,Hokes Bluff,AL,Alabama,1055,Etowah,33.9902,-85.8639,A,104449,104236,104215,103790,103371,102873,102564
28,Berry,Berry,AL,Alabama,1057,Fayette,33.6623,-87.6079,A,17231,17063,16966,16858,16821,16723,16546
29,Russellville,Russellville,AL,Alabama,1059,Franklin,34.5055,-87.7282,A,31734,31734,31652,31505,31540,31542,31628
30,Hacoda,Hacoda,AL,Alabama,1061,Geneva,31.0749,-86.1663,A,26796,26843,27012,26754,26688,26755,26614
31,Hartford,Hartford,AL,Alabama,1063,Greene,32.9938,-87.9071,A,9001,8926,8837,8702,8525,8450,8422
32,Union,Union,AL,Alabama,1065,Hale,32.592,-87.5331,A,15740,15377,15393,15293,15081,15075,14952
33,Newbern,Newbern,AL,Alabama,1067,Henry,31.3502,-85.3523,A,17294,17405,17237,17188,17156,17191,17164
34,Headland,Headland,AL,Alabama,1069,Houston,31.2968,-85.1103,A,101804,102480,103382,103614,104177,104225,104056
35,Columbia,Columbia,AL,Alabama,1071,Jackson,34.6844,-85.846,A,53181,53275,53087,52939,52580,52298,52138
36,Pisgah,Pisgah,AL,Alabama,1073,Jefferson,33.7062,-86.6655,A,658150,657669,657639,658578,659733,660007,659521
37,Pinson,Pinson,AL,Alabama,1075,Lamar,33.7589,-88.1144,A,14495,14301,14257,14192,14062,13902,13918
38,Vernon,Vernon,AL,Alabama,1077,Lauderdale,34.9173,-88.0654,A,92747,92593,92694,92713,93005,92477,92318
39,Waterloo,Waterloo,AL,Alabama,1079,Lawrence,34.4343,-87.2936,A,34306,34052,33788,33570,33432,33133,33244
40,Wren,Wren,AL,Alabama,1081,Lee,32.6621,-85.3772,A,140804,144123,148289,151411,154277,156767,158991
41,Opelika,Opelika,AL,Alabama,1083,Limestone,34.7315,-86.9706,A,83162,85571,87368,88904,90640,91622,92753
42,Tanner,Tanner,AL,Alabama,1085,Lowndes,32.0501,-86.545,A,11278,11117,10835,10685,10524,10422,10358
43,Calhoun,Calhoun,AL,Alabama,1087,Macon,32.2432,-85.7097,A,21499,21317,20632,20016,19594,19215,18963
44,Fort Davis,Fort Davis,AL,Alabama,1089,Madison,34.5904,-86.7418,A,336149,339594,342773,346704,350121,353302,356967
45,Triana,Triana,AL,Alabama,1091,Marengo,32.3424,-87.7761,A,20953,20728,20451,20208,20086,19912,19673
46,Providence,Providence,AL,Alabama,1093,Marion,33.9829,-87.9017,A,30798,30725,30520,30283,30250,30145,29998
47,Guin,Guin,AL,Alabama,1095,Marshall,34.1705,-86.3224,A,93150,93885,94182,94318,94320,94693,95157
48,Douglas,Douglas,AL,Alabama,1097,Mobile,30.8232,-88.3614,A,413369,413178,413760,413884,414342,414634,414836
49,Wilmer,Wilmer,AL,Alabama,1099,Monroe,31.5164,-87.328,A,22987,22795,22593,22154,21902,21697,21530
50,Monroeville,Monroeville,AL,Alabama,1101,Montgomery,32.2415,-86.2964,A,229554,229174,228708,227841,227193,226868,226349
51,Snowdoun,Snowdoun,AL,Alabama,1103,Morgan,34.3274,-86.7614,A,119610,119988,120123,119652,119602,119387,119012
52,Eva,Eva,AL,Alabama,1105,Perry,32.5362,-87.1797,A,10543,10518,10184,9995,9842,9683,9574
53,Suttle,Suttle,AL,Alabama,1107,Pickens,33.1237,-88.1594,A,19717,19366,19359,19370,20332,20827,20324
54,Aliceville,Aliceville,AL,Alabama,1109,Pike,31.7182,-86.1242,A,32964,32999,33113,33592,33020,33376,33286
55,Goshen,Goshen,AL,Alabama,1111,Randolph,33.2682,-85.4569,A,22893,22807,22623,22629,22468,22703,22652
56,Tennant,Tennant,AL,Alabama,1113,Russell,32.1882,-85.1633,A,53305,54891,57626,59240,59282,58858,58172
57,Pittsview,Pittsview,AL,Alabama,1115,St. Clair,33.7643,-86.4749,A,83816,84351,85168,86225,86482,86986,88019
58,Springville,Springville,AL,Alabama,1117,Shelby,33.1068,-86.5825,A,196053,197975,200789,203825,205990,208527,210622
59,Shelby,Shelby,AL,Alabama,1119,Sumter,32.9477,-88.2674,A,13742,13512,13448,13409,13283,13244,13040
60,Panola,Panola,AL,Alabama,1121,Talladega,33.4329,-86.0976,A,82077,81847,81941,81277,81216,80749,80103
61,Talladega,Talladega,AL,Alabama,1123,Tallapoosa,32.5788,-85.8189,A,41512,41459,41144,41139,41027,40755,40727
62,Reeltown,Reeltown,AL,Alabama,1125,Tuscaloosa,33.2904,-87.1981,A,194996,196696,198581,200681,202671,204321,206102
63,Abernant,Abernant,AL,Alabama,1127,Walker,33.7503,-87.0483,A,67006,66661,66211,65934,65564,65291,64967
64,Sumiton,Sumiton,AL,Alabama,1129,Washington,31.4836,-88.1513,A,17612,17336,17115,16881,16891,16901,16756
65,Hobson,Hobson,AL,Alabama,1131,Wilcox,32.0046,-87.0072,A,11562,11482,11355,11194,11028,11030,10986
66,Snow Hill,Snow Hill,AL,Alabama,1133,Winston,34.0904,-87.6014,A,24402,24334,24171,24150,24083,23854,23805
67,Natural Bridge,Natural Bridge,AK,Alaska,2013,Aleutians East,55.0889,-162.0306,A,3169,3251,3285,3302,3296,3317,3296
68,Port Moller,Port Moller,AK,Alaska,2016,Aleutians West,53.8269,-166.2081,A,5546,5586,5688,5715,5780,5739,5647
69,Chernofski,Chernofski,AK,Alaska,2020,Anchorage,61.1886,-149.9064,A,293415,296397,298527,301143,300429,298312,298192
70,Chugiak,Chugiak,AK,Alaska,2050,Bethel,60.5333,-165.1557,A,17078,17466,17695,17865,17959,17940,17968
71,Napakiak,Napakiak,AK,Alaska,2060,Bristol Bay,58.753,-156.5061,A,1003,1037,983,954,942,892,898
72,Naknek,Naknek,AK,Alaska,2068,Denali,63.9454,-149.0152,A,1833,1875,1913,1940,1907,1913,1953
73,Suntrana,Suntrana,AK,Alaska,2070,Dillingham,58.9049,-157.669,A,4855,4963,4963,4994,4989,4999,4954
74,Nushagak,Nushagak,AK,Alaska,2090,Fairbanks North Star,64.7808,-148.5297,A,98293,98100,100330,100879,99295,99639,100605
75,Chatanika,Chatanika,AK,Alaska,2100,Haines,59.1517,-135.3584,A,2500,2572,2572,2551,2537,2484,2496
76,Haines,Haines,AK,Alaska,2105,Hoonah-Angoon,58.0653,-135.42,A,2135,2111,2131,2128,2081,2118,2078
77,Game Creek,Game Creek,AK,Alaska,2110,Juneau,58.4103,-134.7558,A,31392,32175,32434,32604,32511,32603,32468
78,Auke Bay,Auke Bay,AK,Alaska,2122,Kenai Peninsula,60.7506,-149.3697,A,55570,56369,56952,57059,57626,58044,58506
79,Seldovia,Seldovia,AK,Alaska,2130,Ketchikan Gateway,55.3232,-131.5893,A,13539,13639,13711,13673,13758,13689,13746
80,Loring,Loring,AK,Alaska,2150,Kodiak Island,57.7934,-152.4059,A,13652,13807,14051,14066,13953,13789,13732
81,Uyak,Uyak,AK,Alaska,2158,Kusilvak,61.7824,-161.3567,A,7464,7657,7792,7950,8063,8109,8049
82,Chaniliut,Chaniliut,AK,Alaska,2164,Lake and Peninsula,59.9711,-154.8626,A,1638,1652,1644,1654,1628,1567,1562
83,Chignik Lagoon,Chignik Lagoon,AK,Alaska,2170,Matanuska-Susitna,62.2753,-150.0814,A,89766,91831,93791,95923,98196,101120,104365
84,Gateway,Gateway,AK,Alaska,2180,Nome,64.3573,-161.1983,A,9536,9834,9873,9897,9834,9875,9917
85,Shishmaref,Shishmaref,AK,Alaska,2185,North Slope,70.2135,-150.9897,A,9467,9536,9662,9741,9708,9690,9606
86,UtqiagÌ‡vik,Utqiagvik,AK,Alaska,2188,Northwest Arctic,66.5988,-159.9996,A,7542,7722,7721,7714,7744,7764,7673
87,Red Dog Mine,Red Dog Mine,AK,Alaska,2195,Petersburg Borough,56.7567,-132.8727,A,3217,3246,3263,3245,3175,3149,3149
88,Hobart Bay,Hobart Bay,AK,Alaska,2198,Prince of Wales-Hyder,55.0617,-131.5417,A,6212,6378,6375,6394,6393,6360,6347
89,Cape Pole,Cape Pole,AK,Alaska,2220,Sitka,56.2969,-134.6617,A,8898,8907,9048,9001,8883,8844,8830
90,Sitka,Sitka,AK,Alaska,2230,Skagway,59.4566,-135.2928,A,965,958,990,1004,1031,1058,1088
91,Skagway,Skagway,AK,Alaska,2240,Southeast Fairbanks,62.7231,-141.1881,A,7071,7144,7179,7001,6968,6826,6876
92,Chicken,Chicken,AK,Alaska,2261,Valdez-Cordova,62.0844,-146.092,A,9657,9737,9729,9764,9453,9308,9355
93,Chisana,Chisana,AK,Alaska,2275,Wrangell,56.3319,-132.0221,A,2370,2381,2402,2417,2376,2400,2411
94,Meyers Chuck,Meyers Chuck,AK,Alaska,2282,Yakutat,59.5665,-139.5966,A,661,654,657,643,642,620,601
95,Yakutat,Yakutat,AK,Alaska,2290,Yukon-Koyukuk,65.0933,-150.8772,A,5587,5728,5728,5658,5548,5541,5526
96,Galena,Galena,AZ,Arizona,4001,Apache,34.5018,-109.3784,A,71761,72391,72968,72021,72034,71594,73112
97,Chambers,Chambers,AZ,Arizona,4003,Cochise,31.4384,-110.0979,A,131807,132960,131843,129554,127321,126395,125770
98,Nicksville,Nicksville,AZ,Arizona,4005,Coconino,35.1872,-111.6195,A,134624,134186,135999,136641,137695,139076,140908
99,Page,Page,AZ,Arizona,4007,Gila,34.2611,-111.2197,A,53539,53486,53036,53039,53124,53138,53556
100,Midland City,Midland City,AZ,Arizona,4009,Graham,33.1806,-110.1865,A,37140,37083,36958,37401,38013,37673,37599
101,Cactus Flat,Cactus Flat,AZ,Arizona,4011,Greenlee,32.9175,-109.196,A,8338,8585,8763,8905,9315,9525,9613
102,Clifton,Clifton,AZ,Arizona,4012,La Paz,34.2009,-114.2089,A,20449,20496,20365,20379,20313,20147,20317
103,La Paz Valley,La Paz Valley,AZ,Arizona,4013,Maricopa,33.6872,-111.865,A,3825616,3870806,3942959,4011219,4083931,4161637,4242997
104,Paradise Valley,Paradise Valley,AZ,Arizona,4015,Mohave,35.0667,-114.1166,A,200378,202635,203126,202622,202985,204165,205249
105,Mojave Ranch Estates,Mojave Ranch Estates,AZ,Arizona,4017,Navajo,35.9225,-110.6569,A,107714,107435,107037,107443,108178,108363,110026
106,Seba Dalkai,Seba Dalkai,AZ,Arizona,4019,Pima,32.3274,-111.2557,A,981927,987816,992490,996634,1003157,1008205,1016206
107,Maish Vaya,Maish Vaya,AZ,Arizona,4021,Pinal,33.0197,-112.0808,A,379400,378007,382259,384978,396024,406220,418540
108,Florence,Florence,AZ,Arizona,4023,Santa Cruz,31.3624,-110.9336,A,47409,47600,47321,46903,46387,46137,45985
109,Patagonia,Patagonia,AZ,Arizona,4025,Yavapai,34.5847,-112.5699,A,211139,211138,212350,215027,218405,221584,225562
110,Ash Fork,Ash Fork,AZ,Arizona,4027,Yuma,32.7573,-114.398,A,197071,202539,202160,201851,203111,203706,205631
111,San Luis,San Luis,AR,Arkansas,5001,Arkansas,34.3268,-91.2343,A,2921995,2939493,2950685,2958663,2966912,2977853,2988248
112,Almyra,Almyra,AR,Arkansas,5003,Ashley,33.1488,-92.0221,A,19015,18880,18978,18777,18502,18373,18214
113,Portland,Portland,AR,Arkansas,5005,Baxter,36.3739,-92.5387,A,21831,21656,21491,21234,20920,20810,20492
114,Clarkridge,Clarkridge,AR,Arkansas,5007,Benton,36.449,-94.1212,A,41539,41280,41068,40962,40797,41070,41062
115,Gateway,Gateway,AR,Arkansas,5009,Boone,36.29,-93.3037,A,222566,228788,234243,238778,243991,250851,258291
116,Omaha,Omaha,AR,Arkansas,5011,Bradley,33.4284,-92.3143,A,36897,37055,37356,37412,37206,37229,37304
117,Hermitage,Hermitage,AR,Arkansas,5013,Calhoun,33.7756,-92.4889,A,11486,11445,11273,11133,11024,11053,10996
118,Hampton,Hampton,AR,Arkansas,5015,Carroll,36.4966,-93.3977,A,5337,5288,5306,5214,5175,5209,5144
119,Urbanette,Urbanette,AR,Arkansas,5017,Chicot,33.2562,-91.2862,A,27540,27443,27574,27745,27742,27744,27646
120,Readland,Readland,AR,Arkansas,5019,Clark,34.0005,-93.3375,A,11793,11683,11473,11344,11196,10985,10945
121,Curtis,Curtis,AR,Arkansas,5021,Clay,36.3925,-90.7285,A,22944,22943,22807,22650,22663,22642,22657
122,Greenway,Greenway,AR,Arkansas,5023,Cleburne,35.6548,-91.9107,A,16050,15827,15568,15312,15143,15067,14920
123,Ida,Ida,AR,Arkansas,5025,Cleveland,34.0445,-92.1404,A,25999,25942,25824,25710,25670,25469,25264
124,New Edinburg,New Edinburg,AR,Arkansas,5027,Columbia,33.1187,-93.0527,A,8686,8665,8615,8539,8410,8299,8241
125,Emerson,Emerson,AR,Arkansas,5029,Conway,35.3806,-92.5702,A,24747,24696,24429,24294,24078,24140,23901
126,Morrilton,Morrilton,AR,Arkansas,5031,Craighead,35.8365,-90.3677,A,21239,21146,21205,21145,21019,20994,20937
127,Cash,Cash,AR,Arkansas,5033,Crawford,35.4266,-94.2369,A,96727,98371,99948,101654,102621,104362,105835
128,Uniontown,Uniontown,AR,Arkansas,5035,Crittenden,35.3763,-90.2704,A,61977,61829,61940,61696,61840,61894,62267
129,Anthonyville,Anthonyville,AR,Arkansas,5037,Cross,35.2434,-91.0312,A,50947,50520,50065,49730,49538,48985,49235
130,Cherry Valley,Cherry Valley,AR,Arkansas,5039,Dallas,33.8523,-92.8293,A,17833,17746,17651,17492,17182,17282,17037
131,Ramsey,Ramsey,AR,Arkansas,5041,Desha,33.609,-91.2048,A,8068,8078,7979,7922,7735,7583,7469
132,Dumas,Dumas,AR,Arkansas,5043,Drew,33.7741,-91.4737,A,12964,12709,12575,12467,12245,12007,11876
133,Ladelle,Ladelle,AR,Arkansas,5045,Faulkner,35.3272,-92.3367,A,18657,18721,18762,18682,18669,18675,18651
134,Mayflower,Mayflower,AR,Arkansas,5047,Franklin,35.5001,-93.8436,A,114065,116297,118534,119299,120683,121343,122227
135,Cass,Cass,AR,Arkansas,5049,Fulton,36.2773,-91.6915,A,18124,18002,17957,17934,17767,17709,17626
136,Mammoth Spring,Mammoth Spring,AR,Arkansas,5051,Garland,34.522,-93.336,A,12216,12296,12246,12243,12130,12188,12123
137,Lake Hamilton,Lake Hamilton,AR,Arkansas,5053,Grant,34.1457,-92.3154,A,96123,96617,96794,96986,97183,97154,97477
138,Prattsville,Prattsville,AR,Arkansas,5055,Greene,36.1901,-90.386,A,17891,17954,18026,18035,18059,18030,18082
139,Paragould,Paragould,AR,Arkansas,5057,Hempstead,33.6609,-93.8323,A,42187,42732,43166,43078,43717,44167,44598
140,Patmos,Patmos,AR,Arkansas,5059,Hot Spring,34.3647,-92.7763,A,22600,22507,22346,22392,22289,22038,21974
141,Point Cedar,Point Cedar,AR,Arkansas,5061,Howard,33.8182,-93.8968,A,33212,33115,33457,33495,33389,33483,33374
142,Dierks,Dierks,AR,Arkansas,5063,Independence,35.7687,-91.6226,A,13803,13821,13693,13527,13488,13350,13377
143,Pleasant Plains,Pleasant Plains,AR,Arkansas,5065,Izard,36.1537,-91.8415,A,36805,36831,36925,36873,37113,37073,37168
144,Wideman,Wideman,AR,Arkansas,5067,Jackson,35.6422,-91.308,A,13682,13579,13522,13386,13508,13454,13433
145,Tupelo,Tupelo,AR,Arkansas,5069,Jefferson,34.3807,-92.164,A,18045,17854,17649,17690,17565,17350,17221
146,Altheimer,Altheimer,AR,Arkansas,5071,Johnson,35.4569,-93.4803,A,77321,76033,74618,73150,72376,71764,70016
147,Hagarville,Hagarville,AR,Arkansas,5073,Lafayette,33.3566,-93.4957,A,25552,25692,25911,25896,25998,26146,26176
148,Bradley,Bradley,AR,Arkansas,5075,Lawrence,36.0841,-91.1202,A,7636,7540,7441,7245,7119,6981,6847
149,Smithville,Smithville,AR,Arkansas,5077,Lee,34.8607,-90.5923,A,17498,17293,17047,17067,16987,16741,16735
150,Moro,Moro,AR,Arkansas,5079,Lincoln,33.9406,-91.84,A,10371,10277,10162,9991,9798,9645,9310
151,Yorktown,Yorktown,AR,Arkansas,5081,Little River,33.7388,-94.148,A,14072,14322,14139,14023,13967,13841,13705
152,Ashdown,Ashdown,AR,Arkansas,5083,Logan,35.3606,-93.5394,A,22313,22283,22018,22111,21959,21796,21792
153,Driggs,Driggs,AR,Arkansas,5085,Lonoke,34.7908,-91.9069,A,68709,69447,70101,70807,71563,71697,72228
154,Scott,Scott,AR,Arkansas,5087,Madison,35.8667,-93.5307,A,15694,15681,15619,15684,15714,15717,16072
155,Marble,Marble,AR,Arkansas,5089,Marion,36.4323,-92.7688,A,16657,16655,16616,16446,16421,16214,16325
156,Oakland,Oakland,AR,Arkansas,5091,Miller,33.0515,-93.896,A,43541,43750,43649,43440,43556,43899,43787
157,Texarkana,Texarkana,AR,Arkansas,5093,Mississippi,35.6941,-89.9934,A,46390,46036,45531,44687,44243,43699,42835
158,Burdette,Burdette,AR,Arkansas,5095,Monroe,34.8898,-91.1899,A,8123,8070,7843,7670,7612,7415,7169
159,Holly Grove,Holly Grove,AR,Arkansas,5097,Montgomery,34.3587,-93.6888,A,9490,9383,9320,9222,9107,8972,8879
160,Norman,Norman,AR,Arkansas,5099,Nevada,33.5432,-93.246,A,8974,9009,8911,8791,8689,8553,8398
161,Laneburg,Laneburg,AR,Arkansas,5101,Newton,35.7715,-93.0777,A,8329,8278,8087,8078,7914,7923,7936
162,Limestone,Limestone,AR,Arkansas,5103,Ouachita,33.4873,-92.9552,A,26077,25727,25405,24969,24799,24370,24098
163,Bearden,Bearden,AR,Arkansas,5105,Perry,34.974,-92.9788,A,10455,10392,10336,10337,10244,10182,10132
164,Casa,Casa,AR,Arkansas,5107,Phillips,34.3887,-90.8287,A,21670,21413,20762,20437,19938,19534,18975
165,Lambrook,Lambrook,AR,Arkansas,5109,Pike,34.2304,-93.8802,A,11273,11239,11270,11126,11002,10854,10832
166,Pike City,Pike City,AR,Arkansas,5111,Poinsett,35.4451,-90.3051,A,24526,24446,24293,24156,24155,24028,24023
167,Marked Tree,Marked Tree,AR,Arkansas,5113,Polk,34.4859,-94.3793,A,20669,20562,20440,20361,20252,20225,20173
168,Big Fork,Big Fork,AR,Arkansas,5115,Pope,35.2314,-93.0638,A,62110,62646,62631,62538,63094,63492,63779
169,Hector,Hector,AR,Arkansas,5117,Prairie,34.9901,-91.7368,A,8716,8578,8460,8364,8314,8280,8251
170,Hazen,Hazen,AR,Arkansas,5119,Pulaski,34.5895,-92.3257,A,383623,386776,388905,391312,392633,392932,393250
171,Ferndale,Ferndale,AR,Arkansas,5121,Randolph,36.3319,-90.8052,A,17967,17974,17854,17621,17540,17455,17448
172,Reyno,Reyno,AR,Arkansas,5123,St. Francis,35.022,-90.6814,A,28181,27960,27907,27408,27026,26578,26196
173,Madison,Madison,AR,Arkansas,5125,Saline,34.6988,-92.5813,A,107667,109901,111758,114287,115780,117358,118703
174,Bryant,Bryant,AR,Arkansas,5127,Scott,34.7795,-94.0491,A,11246,11223,10986,10874,10659,10510,10277
175,Parks,Parks,AR,Arkansas,5129,Searcy,35.9934,-92.5204,A,8176,8069,7988,7979,7908,7850,7967
176,Witts Springs,Witts Springs,AR,Arkansas,5131,Sebastian,35.1684,-94.0935,A,125817,126909,127418,127127,126827,127590,127793
177,Central City,Central City,AR,Arkansas,5133,Sevier,33.8335,-94.1177,A,17142,17166,17153,17297,17377,17226,16910
178,Provo,Provo,AR,Arkansas,5135,Sharp,36.3188,-91.4791,A,17280,17274,17061,17084,16904,16931,17157
179,Highland,Highland,AR,Arkansas,5137,Stone,35.8709,-92.3171,A,12394,12563,12610,12490,12445,12430,12539
180,Alco,Alco,AR,Arkansas,5139,Union,33.3636,-92.7314,A,41556,41375,40864,40603,40158,40158,39887
181,Urbana,Urbana,AR,Arkansas,5141,Van Buren,35.6442,-92.3137,A,17308,17197,17167,16992,16893,16780,16628
182,Damascus,Damascus,AR,Arkansas,5143,Washington,36.1898,-94.1573,A,204012,207833,211497,215979,219891,224233,228049
183,Winslow,Winslow,AR,Arkansas,5145,White,35.1262,-92.0954,A,77333,78116,78670,78635,78532,79013,79263
184,Pangburn,Pangburn,AR,Arkansas,5147,Woodruff,35.3581,-91.3229,A,7240,7189,7068,7042,6886,6727,6641
185,Grays,Grays,AR,Arkansas,5149,Yell,35.1129,-93.1688,A,22155,21935,21804,21768,21850,21607,21552
186,Belleville,Belleville,CA,California,6001,Alameda,37.716,-121.9088,A,1513653,1532019,1555542,1581226,1608868,1632747,1647704
187,Hayward,Hayward,CA,California,6003,Alpine,38.4722,-120.0491,A,1160,1109,1123,1141,1104,1106,1071
188,Mesa Vista,Mesa Vista,CA,California,6005,Amador,38.419,-120.8232,A,37869,37524,37089,36576,36739,37026,37383
189,Volcano,Volcano,CA,California,6007,Butte,39.4908,-121.615,A,219983,219987,221180,222116,223974,225251,226864
190,Oroville,Oroville,CA,California,6009,Calaveras,38.3791,-120.5146,A,45462,45106,44760,44577,44589,44840,45171
191,Wallace,Wallace,CA,California,6011,Colusa,39.2771,-122.1946,A,21446,21366,21323,21322,21256,21318,21588
192,Arbuckle,Arbuckle,CA,California,6013,Contra Costa,37.9084,-122.2805,A,1052875,1066126,1078242,1094030,1108996,1123231,1135127
193,San Pablo,San Pablo,CA,California,6015,Del Norte,41.7937,-124.0661,A,28562,28466,28212,27837,27252,27301,27540
194,Smith River,Smith River,CA,California,6017,El Dorado,38.6737,-120.9872,A,181153,180863,180558,181427,183031,184359,185625
195,Pilot Hill,Pilot Hill,CA,California,6019,Fresno,36.8006,-120.0199,A,932463,940496,946844,953762,963151,972130,979915
196,Kingsburg,Kingsburg,CA,California,6021,Glenn,39.6002,-122.5376,A,28109,28186,27938,27915,27982,27961,28085
197,Orland,Orland,CA,California,6023,Humboldt,40.9722,-124.025,A,135032,135243,134663,134555,134665,135383,136646
198,Ferndale,Ferndale,CA,California,6025,Imperial,33.4041,-116.0394,A,174751,176227,177287,177194,178866,179806,180883
199,Imperial,Imperial,CA,California,6027,Inyo,36.4277,-116.8747,A,18513,18403,18408,18418,18410,18251,18144
200,Olancha,Olancha,CA,California,6029,Kern,35.298,-119.625,A,841676,849484,855808,864454,872138,879497,884788
201,Boron,Boron,CA,California,6031,Kings,36.1885,-119.8223,A,152368,151895,151042,150480,149669,150331,149785
202,Avenal,Avenal,CA,California,6033,Lake,39.1653,-122.9052,A,64743,64242,63942,63776,64099,64446,64116
203,Cobb,Cobb,CA,California,6035,Lassen,40.7985,-120.3652,A,34838,34288,33662,32144,31714,31333,30870
204,Herlong,Herlong,CA,California,6037,Los Angeles,34.0585,-117.7625,A,9825473,9888476,9953555,10015436,10066615,10112255,10137915
205,Montebello,Montebello,CA,California,6039,Madera,37.3652,-119.7194,A,151099,151962,151947,151811,154071,154306,154697
206,Coarsegold,Coarsegold,CA,California,6041,Marin,38.0052,-122.6384,A,252946,255457,256064,258506,260516,261054,260651
207,Novato,Novato,CA,California,6043,Mariposa,37.4873,-119.9682,A,18260,18188,17858,17746,17658,17553,17410
208,Wawona,Wawona,CA,California,6045,Mendocino,39.8635,-123.7253,A,87807,87442,87409,87207,87449,87353,87628
209,Anchor Bay,Anchor Bay,CA,California,6047,Merced,37.3969,-120.8499,A,256831,259678,261430,262661,265139,267101,268672
210,Volta,Volta,CA,California,6049,Modoc,41.646,-121.328,A,9695,9497,9328,9100,9010,8933,8795
211,Likely,Likely,CA,California,6051,Mono,37.55,-118.7087,A,14246,14407,14325,14020,14045,13885,13981
212,Toms Place,Toms Place,CA,California,6053,Monterey,36.4824,-121.7198,A,416415,421157,425799,428064,429902,432007,435232
213,Soledad,Soledad,CA,California,6055,Napa,38.5044,-122.4681,A,136813,137940,138898,140102,141097,141854,142166
214,Oakville,Oakville,CA,California,6057,Nevada,39.3718,-121.106,A,98782,98772,98305,98156,98796,98829,99107
215,Kingvale,Kingvale,CA,California,6059,Orange,33.9255,-117.8654,A,3017647,3053884,3084935,3112576,3134438,3156573,3172532
216,Trabuco Highlands,Trabuco Highlands,CA,California,6061,Placer,38.8075,-121.2488,A,350234,356783,361018,366435,370486,374383,380531
217,Weimar,Weimar,CA,California,6063,Plumas,39.7663,-120.713,A,19918,19691,19327,18844,18573,18401,18627
218,Canyondam,Canyondam,CA,California,6065,Riverside,33.6536,-116.2785,A,2202226,2236146,2264919,2291452,2322455,2352892,2387741
219,Rancho Mirage,Rancho Mirage,CA,California,6067,Sacramento,38.688,-121.2208,A,1422018,1435002,1447236,1460023,1478137,1496644,1514460
220,Galt,Galt,CA,California,6069,San Benito,36.8563,-121.3981,A,55554,56159,56799,57471,58098,58473,59414
221,Paicines,Paicines,CA,California,6071,San Bernardino,34.1178,-117.6603,A,2041562,2062945,2077247,2087945,2105935,2122545,2140096
222,Atolia,Atolia,CA,California,6073,San Diego,32.6278,-116.1827,A,3104346,3140692,3181513,3218419,3258856,3290245,3317749
223,La Mesa,La Mesa,CA,California,6075,San Francisco,37.7562,-122.443,C,805766,815672,828816,839280,850424,862004,870887
224,San Francisco,San Francisco,CA,California,6077,San Joaquin,38.0365,-121.1846,A,687380,694943,700611,703265,713218,723496,733709
225,French Camp,French Camp,CA,California,6079,San Luis Obispo,35.556,-120.7182,A,269909,271176,274487,276191,278877,280960,282887
226,Morro Bay,Morro Bay,CA,California,6081,San Mateo,37.4671,-122.1352,A,719935,728919,739982,748952,756819,763191,764797
227,Los Trancos Woods,Los Trancos Woods,CA,California,6083,Santa Barbara,34.6155,-120.6335,A,424396,425998,430638,435800,440553,443815,446170
228,New Cuyama,New Cuyama,CA,California,6085,Santa Clara,37.3685,-122.0966,A,1786637,1812868,1838988,1866961,1889824,1910105,1919402
229,East Foothills,East Foothills,CA,California,6087,Santa Cruz,37.0511,-122.0533,A,263270,264896,266435,268948,270971,273627,274673
230,Opal Cliffs,Opal Cliffs,CA,California,6089,Shasta,40.8846,-121.6691,A,177320,177963,178430,179062,179717,179301,179631
231,Platina,Platina,CA,California,6091,Sierra,39.4278,-120.9996,A,3220,3106,3076,3039,2983,2983,2947
232,Sierraville,Sierraville,CA,California,6093,Siskiyou,41.2974,-123.1303,A,44936,44673,44147,43632,43476,43483,43603
233,Etna,Etna,CA,California,6095,Solano,38.1133,-122.2359,A,414034,416486,419881,423972,429601,434321,440207
234,Rio Vista,Rio Vista,CA,California,6097,Sonoma,38.5137,-122.9894,A,484817,487641,490509,494657,499168,501474,503070
235,Sonoma,Sonoma,CA,California,6099,Stanislaus,37.7616,-120.847,A,515342,518073,521360,524744,529754,535385,541560
236,Modesto,Modesto,CA,California,6101,Sutter,38.91,-121.5443,A,94806,94614,94362,94801,95236,95978,96651
237,Yuba City,Yuba City,CA,California,6103,Tehama,39.9282,-122.182,A,63571,63254,63133,62835,62756,63073,63276
238,Tehama,Tehama,CA,California,6105,Trinity,40.9841,-122.7083,A,13765,13716,13500,13430,13121,13068,12782
239,Hayfork,Hayfork,CA,California,6107,Tulare,36.294,-119.1459,A,443083,447384,450701,453354,456115,458238,460437
240,Kaweah,Kaweah,CA,California,6109,Tuolumne,37.8235,-120.2582,A,55182,54749,54134,53940,53827,53615,53804
241,Cedar Ridge,Cedar Ridge,CA,California,6111,Ventura,34.2855,-118.877,A,825320,830707,834519,839498,844078,847719,849738
242,Sespe,Sespe,CA,California,6113,Yolo,38.7979,-121.7176,A,201122,202167,204929,206685,208737,212202,215802
243,Guinda,Guinda,CA,Colorado,8001,Adams,39.839,-105.0014,A,443681,452040,460472,470107,480446,490674,498187
244,Northglenn,Northglenn,CO,Colorado,8003,Alamosa,37.4755,-105.877,A,15927,16137,16141,16253,16284,16435,16654
245,Mosca,Mosca,CO,Colorado,8005,Arapahoe,39.5993,-105.035,A,574785,585836,596066,607660,618307,629241,637068
246,Englewood,Englewood,CO,Colorado,8007,Archuleta,37.0201,-107.4222,A,12055,12011,12113,12194,12229,12384,12854
247,Pagosa Springs,Pagosa Springs,CO,Colorado,8009,Baca,37.2711,-103.0313,A,3790,3814,3762,3682,3630,3599,3568
248,Deora,Deora,CO,Colorado,8011,Bent,37.6439,-103.2408,A,6508,6322,5811,5738,5780,5892,5861
249,Toonerville,Toonerville,CO,Colorado,8013,Boulder,39.9633,-105.5071,A,295983,300597,305350,310287,313204,318738,322226
250,Crescent,Crescent,CO,Colorado,8014,Broomfield,39.9541,-105.0527,C,56275,57425,58930,60116,61786,64885,66529
251,Wallstreet,Wallstreet,CO,Colorado,8015,Chaffee,38.5131,-106.0961,A,17803,18007,18105,18318,18448,18606,19058
252,Granite,Granite,CO,Colorado,8017,Cheyenne,38.8258,-103.0116,A,1831,1863,1873,1881,1841,1816,1848
253,Cheyenne Wells,Cheyenne Wells,CO,Colorado,8019,Clear Creek,39.7658,-105.6275,A,9081,9052,9075,9100,9215,9364,9436
254,Saint Marys,Saint Marys,CO,Colorado,8021,Conejos,37.2819,-106.1051,A,8292,8317,8279,8257,8276,8125,8129
255,Antonito,Antonito,CO,Colorado,8023,Costilla,37.0028,-105.6242,A,3526,3646,3603,3521,3540,3563,3721
256,San Acacio,San Acacio,CO,Colorado,8025,Crowley,38.2328,-103.6633,A,5852,5846,5418,5325,5608,5639,5694
257,Ordway,Ordway,CO,Colorado,8027,Custer,38.0972,-105.3361,A,4275,4227,4241,4264,4344,4425,4602
258,Greenwood,Greenwood,CO,Colorado,8029,Delta,38.8942,-107.9255,A,30880,30374,30438,30314,29961,29950,30442
259,Hotchkiss,Hotchkiss,CO,Colorado,8031,Denver,39.7621,-104.8759,C,603329,619281,633563,647433,662425,680032,693060
260,Paonia,Paonia,CO,Colorado,8033,Dolores,37.6885,-108.0315,A,2065,2033,1998,2030,1975,1981,2056
261,Cahone,Cahone,CO,Colorado,8035,Douglas,39.4625,-104.8706,A,286979,292607,298754,306442,314981,322381,328632
262,Stonegate,Stonegate,CO,Colorado,8037,Eagle,39.5328,-106.3939,A,52081,51751,51942,52379,52815,53346,53989
263,Bond,Bond,CO,Colorado,8039,Elbert,39.2189,-104.5403,A,23094,23260,23400,23670,24128,24698,25231
264,Simla,Simla,CO,Colorado,8041,El Paso,39.1063,-104.8456,A,626950,636901,645641,654993,662647,674290,688284
265,Ellicott,Ellicott,CO,Colorado,8043,Fremont,38.4213,-105.0004,A,46857,47417,47122,46467,46427,46713,47446
266,Brookside,Brookside,CO,Colorado,8045,Garfield,39.5361,-107.772,A,56096,55964,56709,56914,57195,57768,58887
267,New Castle,New Castle,CO,Colorado,8047,Gilpin,39.8044,-105.4946,A,5461,5444,5453,5567,5773,5817,5931
268,Pinecliffe,Pinecliffe,CO,Colorado,8049,Grand,39.9303,-105.8031,A,14782,14543,14147,14254,14461,14580,15008
269,Grand Lake,Grand Lake,CO,Colorado,8051,Gunnison,38.9264,-107.4703,A,15357,15458,15425,15643,15830,16137,16408
270,Marble,Marble,CO,Colorado,8053,Hinsdale,38.0303,-107.3103,A,844,826,797,805,778,769,788
271,Lake City,Lake City,CO,Colorado,8055,Huerfano,37.7833,-105.1656,A,6667,6522,6582,6479,6407,6459,6677
272,La Veta,La Veta,CO,Colorado,8057,Jackson,40.7315,-106.2813,A,1385,1380,1347,1355,1395,1352,1357
273,Rand,Rand,CO,Colorado,8059,Jefferson,39.5423,-105.2968,A,535916,539865,546080,551912,559076,565143,571837
274,South Platte,South Platte,CO,Colorado,8061,Kiowa,38.4667,-102.2943,A,1396,1457,1438,1417,1409,1414,1373
275,Towner,Towner,CO,Colorado,8063,Kit Carson,39.3045,-102.2714,A,8247,8201,8107,8279,8054,8234,8195
276,Bethune,Bethune,CO,Colorado,8065,Lake,39.1037,-106.319,A,7267,7371,7280,7296,7351,7461,7618
277,Twin Lakes,Twin Lakes,CO,Colorado,8067,La Plata,37.1442,-108.1195,A,51374,51788,52356,53339,53882,54770,55623
278,Mayday,Mayday,CO,Colorado,8069,Larimer,40.7944,-105.2172,A,300523,305267,310965,316605,324709,333869,339993
279,Fort Collins,Fort Collins,CO,Colorado,8071,Las Animas,37.0155,-103.8838,A,15392,15027,14967,14401,14072,14067,14103
280,Vigil,Vigil,CO,Colorado,8073,Lincoln,39.2841,-103.2739,A,5470,5431,5442,5430,5507,5551,5643
281,Boyero,Boyero,CO,Colorado,8075,Logan,40.6567,-102.7238,A,22127,22096,21846,21660,21940,21946,21919
282,Padroni,Padroni,CO,Colorado,8077,Mesa,39.1079,-108.3581,A,146486,147172,147471,147372,147502,148401,150083
283,Clifton,Clifton,CO,Colorado,8079,Mineral,37.8492,-106.9264,A,704,711,710,722,693,724,732
284,Gateway,Gateway,CO,Colorado,8081,Moffat,40.2527,-108.6404,A,13812,13424,13164,13099,12899,12899,13109
285,Lay,Lay,CO,Colorado,8083,Montezuma,37.5894,-108.3201,A,25553,25467,25437,25657,25783,26153,26999
286,Yellow Jacket,Yellow Jacket,CO,Colorado,8085,Montrose,38.1761,-108.4126,A,41194,40897,40678,40634,40747,40800,41471
287,Olathe,Olathe,CO,Colorado,8087,Morgan,40.3511,-104.0616,A,28172,28512,28331,28306,28208,28323,28274
288,Weldona,Weldona,CO,Colorado,8089,Otero,38.1296,-104.0255,A,18882,18867,18689,18525,18407,18284,18295
289,La Junta Gardens,La Junta Gardens,CO,Colorado,8091,Ouray,38.1573,-107.7545,A,4466,4454,4546,4579,4615,4660,4857
290,Colona,Colona,CO,Colorado,8093,Park,39.4055,-105.4733,A,16263,16089,16037,16118,16296,16581,17166
291,Como,Como,CO,Colorado,8095,Phillips,40.6415,-102.6295,A,4463,4370,4382,4357,4380,4326,4288
292,Holyoke,Holyoke,CO,Colorado,8097,Pitkin,39.1948,-106.837,A,17158,17129,17223,17361,17595,17782,17752
293,Woody Creek,Woody Creek,CO,Colorado,8099,Prowers,38.1211,-102.2216,A,12558,12500,12408,12286,12040,11949,11922
294,Wiley,Wiley,CO,Colorado,8101,Pueblo,38.2351,-104.3435,A,159521,159785,160397,160803,161350,163117,165123
295,Cedarwood,Cedarwood,CO,Colorado,8103,Rio Blanco,40.0864,-108.7774,A,6668,6782,6796,6740,6660,6548,6545
296,Meeker,Meeker,CO,Colorado,8105,Rio Grande,37.6784,-106.3539,A,12020,11916,11882,11725,11561,11467,11479
297,South Fork,South Fork,CO,Colorado,8107,Routt,40.4847,-107.0195,A,23447,23257,23285,23587,24054,24325,24648
298,Toponas,Toponas,CO,Colorado,8109,Saguache,38.002,-105.9055,A,6136,6178,6305,6209,6161,6209,6389
299,Bonanza,Bonanza,CO,Colorado,8111,San Juan,37.8111,-107.6646,A,708,693,691,695,717,694,694
300,Villa Grove,Villa Grove,CO,Colorado,8113,San Miguel,37.9365,-107.8264,A,7358,7483,7578,7636,7755,7849,8017
301,Egnar,Egnar,CO,Colorado,8115,Sedgwick,40.9605,-102.3884,A,2370,2372,2372,2342,2330,2385,2407
302,Sedgwick,Sedgwick,CO,Colorado,8117,Summit,39.5793,-106.0919,A,28065,27972,28223,28653,29205,29892,30374
303,Keystone,Keystone,CO,Colorado,8119,Teller,38.7177,-105.1253,A,23447,23329,23373,23242,23375,23329,24043
304,Green Mountain Falls,Green Mountain Falls,CO,Colorado,8121,Washington,40.1553,-103.0674,A,4802,4812,4737,4781,4784,4860,4908
305,Cope,Cope,CO,Colorado,8123,Weld,40.6067,-103.8438,A,254164,258629,263997,270182,276163,285053,294932
306,Hudson,Hudson,CO,Colorado,8125,Yuma,39.6127,-102.592,A,10024,10156,10117,10205,10232,10095,10103
307,Hale,Hale,CO,Connecticut,9001,Fairfield,41.124,-73.3193,N,919750,928890,934931,940621,943686,944674,944177
308,Branchville,Branchville,CT,Connecticut,9003,Hartford,41.6298,-72.7714,N,895388,897057,897420,897737,896258,894692,892389
309,Bristol,Bristol,CT,Connecticut,9005,Litchfield,41.7247,-73.2422,N,189771,188968,187487,186760,185110,183776,182571
310,Winsted,Winsted,CT,Connecticut,9007,Middlesex,41.5043,-72.4491,N,165631,166225,165512,165219,164555,163577,163329
311,Saybrook Manor,Saybrook Manor,CT,Connecticut,9009,New Haven,41.2223,-73.0565,N,863480,864009,864177,862712,861534,859073,856875
312,North Haven,North Haven,CT,Connecticut,9011,New London,41.3502,-72.1023,N,274072,273226,274267,273405,272053,270639,269801
313,Old Mystic,Old Mystic,CT,Connecticut,9013,Tolland,41.7736,-72.3287,N,153214,153093,152006,151881,151758,151684,151118
314,Somers,Somers,CT,Connecticut,9015,Windham,41.6849,-72.1845,N,118593,118425,117995,117668,116919,116615,116192
315,East Brooklyn,East Brooklyn,CT,Delaware,10001,Kent,39.1164,-75.5216,A,162990,165258,167605,169457,171949,173533,174827
316,Houston,Houston,DE,Delaware,10003,New Castle,39.6776,-75.7573,A,538934,542308,546041,549521,552271,555167,556987
317,Yorklyn,Yorklyn,DE,Delaware,10005,Sussex,38.4604,-75.0542,A,197892,200358,203347,206417,210728,215376,220251
318,Long Neck,Long Neck,FL,Florida,12001,Alachua,29.778,-82.4827,A,247625,249722,251587,252636,255786,259402,263496
319,Arredondo,Arredondo,FL,Florida,12003,Baker,30.2751,-82.1603,A,27080,27073,27055,27001,27143,27424,27937
320,Olustee,Olustee,FL,Florida,12005,Bay,30.1975,-85.6974,A,169257,169647,172029,174994,178860,181947,183974
321,Southport,Southport,FL,Florida,12007,Bradford,29.9166,-82.2079,A,28537,28491,27141,26910,26682,26935,26926
322,Hampton,Hampton,FL,Florida,12009,Brevard,28.7905,-80.8045,A,544008,544456,547753,551299,557299,567934,579130
323,Palm Shores,Palm Shores,FL,Florida,12011,Broward,26.0206,-80.1839,A,1753125,1787889,1816552,1840051,1865385,1887281,1909632
324,Southwest Ranches,Southwest Ranches,FL,Florida,12013,Calhoun,30.572,-85.127,A,14633,14769,14717,14634,14510,14468,14423
325,Frink,Frink,FL,Florida,12015,Charlotte,26.9071,-82.3259,A,159935,159671,162937,165018,168595,173194,178465
326,Solana,Solana,FL,Florida,12017,Citrus,28.887,-82.4312,A,141263,139841,139341,139063,139264,140974,143621
327,Hernando,Hernando,FL,Florida,12019,Clay,29.9819,-81.9959,A,191436,192375,194260,196276,199501,203383,208311
328,Orange Park,Orange Park,FL,Florida,12021,Collier,25.9015,-81.3034,A,322724,327541,332332,339244,347899,356570,365136
329,Naples Park,Naples Park,FL,Florida,12023,Columbia,30.0738,-82.6957,A,67584,67344,67949,67512,67942,68286,69299
330,Fort White,Fort White,FL,Florida,12027,DeSoto,27.1192,-81.9423,A,34924,34670,34781,34641,35094,35355,35800
331,Fort Ogden,Fort Ogden,FL,Florida,12029,Dixie,29.4499,-83.2818,A,16403,16365,16074,15955,15904,16187,16300
332,Cross City,Cross City,FL,Florida,12031,Duval,30.3051,-81.9737,C,865825,872480,880870,886873,898372,912081,926255
333,Neptune Beach,Neptune Beach,FL,Florida,12033,Escambia,30.4158,-87.3028,A,298164,299698,304218,307782,309449,311236,315187
334,Ensley,Ensley,FL,Florida,12035,Flagler,29.4269,-81.2226,A,96089,97412,98605,100013,102471,105188,108310
335,Flagler Beach,Flagler Beach,FL,Florida,12037,Franklin,29.7282,-84.994,A,11534,11493,11637,11559,11678,11749,11901
336,Saint Teresa,Saint Teresa,FL,Florida,12039,Gadsden,30.5659,-84.5856,A,47790,47340,46574,46034,46121,46032,46006
337,Hinson,Hinson,FL,Florida,12041,Gilchrist,29.7186,-82.941,A,16995,16987,16886,16912,16973,17181,17212
338,Bell,Bell,FL,Florida,12043,Glades,27.133,-80.8868,A,12938,13149,13007,13079,13439,13607,13970
339,Palmdale,Palmdale,FL,Florida,12045,Gulf,29.6905,-85.2644,A,15814,15664,15669,15788,15936,15874,15990
340,Honeyville,Honeyville,FL,Florida,12047,Hamilton,30.5981,-83.1076,A,14672,14605,14732,14344,14068,14303,14361
341,Jasper,Jasper,FL,Florida,12049,Hardee,27.4927,-81.7871,A,27740,27633,27379,27255,27264,27252,27360
342,Fort Green Springs,Fort Green Springs,FL,Florida,12051,Hendry,26.7493,-81.3876,A,39034,38873,37777,37630,38294,38890,39290
343,Harlem,Harlem,FL,Florida,12053,Hernando,28.6322,-82.3617,A,172975,172909,173110,174019,175695,178326,182835
344,Brookridge,Brookridge,FL,Florida,12055,Highlands,27.297,-81.3717,A,98664,98308,98045,97817,98085,99447,100917
345,De Soto City,De Soto City,FL,Florida,12057,Hillsborough,28.0465,-82.291,A,1233839,1271205,1281677,1293189,1317116,1347077,1376238
346,Cheval,Cheval,FL,Florida,12059,Holmes,30.7828,-85.6846,A,19860,19842,19739,19652,19640,19329,19487
347,New Hope,New Hope,FL,Florida,12061,Indian River,27.7733,-80.4182,A,138243,139027,140650,141966,144740,147792,151563
348,Roseland,Roseland,FL,Florida,12063,Jackson,30.789,-85.3641,A,49614,49148,49011,48990,48786,48590,48229
349,Sink Creek,Sink Creek,FL,Florida,12065,Jefferson,30.402,-83.96,A,14746,14506,14204,14191,14037,14071,13906
350,Ashville,Ashville,FL,Florida,12067,Lafayette,30.195,-83.2909,A,8813,8815,8811,8820,8832,8628,8617
351,Hatchbend,Hatchbend,FL,Florida,12069,Lake,28.611,-81.9107,A,297862,299926,303437,307922,315657,325518,335396
352,Ferndale,Ferndale,FL,Florida,12071,Lee,26.7153,-81.8234,A,620590,630543,644096,660085,678048,700285,722336
353,Lochmoor Waterway Estates,Lochmoor Waterway Estates,FL,Florida,12073,Leon,30.451,-84.0879,A,275986,278362,283808,282071,284053,286187,287822
354,Woodville,Woodville,FL,Florida,12075,Levy,29.0334,-82.733,A,40721,40254,39935,39535,39418,39688,39961
355,Williston Highlands,Williston Highlands,FL,Florida,12077,Liberty,30.023,-84.9825,A,8338,8234,8247,8309,8345,8323,8202
356,Bristol,Bristol,FL,Florida,12079,Madison,30.5941,-83.3524,A,19231,19079,18939,18724,18516,18398,18224
357,Madison,Madison,FL,Florida,12081,Manatee,27.49,-82.5743,A,323446,327373,334096,342246,351713,363110,375888
358,Parmalee,Parmalee,FL,Florida,12083,Marion,29.4119,-82.1098,A,331437,332429,334294,335800,339079,343514,349020
359,Reddick,Reddick,FL,Florida,12085,Martin,27.0449,-80.11,A,146979,147694,148945,151237,153272,155804,158701
360,Gomez,Gomez,FL,Florida,12086,Miami-Dade,25.709,-80.3156,A,2507362,2573361,2607979,2641273,2667299,2692593,2712945
361,West Little River,West Little River,FL,Florida,12087,Monroe,25.0188,-80.5132,A,73212,74096,74833,76204,76910,78728,79077
362,Duck Key,Duck Key,FL,Florida,12089,Nassau,30.6869,-81.9212,A,73530,74162,74638,75606,76598,78470,80622
363,Italia,Italia,FL,Florida,12091,Okaloosa,30.7157,-86.7458,A,180762,183245,190254,193408,195479,198681,201170
364,Baker,Baker,FL,Florida,12093,Okeechobee,27.2172,-80.7927,A,40028,39449,39287,38989,39101,39409,40314
365,Basinger,Basinger,FL,Florida,12095,Orange,28.456,-81.4465,A,1148716,1169806,1202048,1225366,1253631,1284864,1314367
366,Plymouth,Plymouth,FL,Florida,12097,Osceola,28.3102,-81.551,A,1323897,1336175,1354987,1375619,1397526,1421843,1443810
367,Kissimmee,Kissimmee,FL,Florida,12099,Palm Beach,26.9618,-80.1011,A,465517,466672,470762,475679,485447,497292,512368
368,Juno Beach,Juno Beach,FL,Florida,12101,Pasco,28.214,-82.723,A,916508,917879,922075,929085,937457,948391,960730
369,Trilby,Trilby,FL,Florida,12103,Pinellas,27.8963,-82.8443,A,603213,609669,615294,622656,634932,649425,666149
370,Feather Sound,Feather Sound,FL,Florida,12105,Polk,28.0116,-81.5995,A,74245,73688,73021,72377,71936,71910,72277
371,Bereah,Bereah,FL,Florida,12107,Putnam,29.5015,-81.5936,A,191266,196050,202308,209607,218151,226658,235087
372,Lundy,Lundy,FL,Florida,12109,St. Johns,30.0972,-81.6176,A,278285,280907,283726,286138,291002,298307,306507
373,Saint Augustine Beach,Saint Augustine Beach,FL,Florida,12111,St. Lucie,27.3214,-80.3309,A,152952,155739,158366,160649,163154,166850,170497
374,Fort Pierce,Fort Pierce,FL,Florida,12113,Santa Rosa,30.3775,-87.0578,A,380040,381666,386135,389911,396537,404903,412569
375,Oriole Beach,Oriole Beach,FL,Florida,12115,Sarasota,27.3328,-82.4615,A,423083,427064,431487,436512,442326,448722,455479
376,Osprey,Osprey,FL,Florida,12117,Seminole,28.689,-81.2708,A,94280,98584,102790,108263,114012,118882,123996
377,Geneva,Geneva,FL,Florida,12119,Sumter,28.7878,-82.1318,A,42312,43349,43492,43550,43777,43651,43794
378,Sumterville,Sumterville,FL,Florida,12121,Suwannee,30.1224,-83.1693,A,22571,22685,22762,22884,22619,22471,22175
379,Live Oak,Live Oak,FL,Florida,12123,Taylor,30.1891,-83.6065,A,15533,15231,15235,15069,15170,15180,15142
380,Shady Grove,Shady Grove,FL,Florida,12125,Union,29.9664,-82.4073,A,494638,494523,497279,501282,507913,518190,529364
381,Worthington Springs,Worthington Springs,FL,Florida,12127,Volusia,29.296,-81.1003,A,30833,30948,30805,30972,31384,31516,31893
382,Samsula,Samsula,FL,Florida,12129,Wakulla,30.1996,-84.3634,A,55244,55673,57330,59411,61550,63459,65889
383,Saint Marks,Saint Marks,FL,Florida,12131,Walton,30.4724,-85.9652,A,24752,24583,24856,24614,24424,24671,24569
384,Blue Mountain Beach,Blue Mountain Beach,FL,Florida,12133,Washington,30.6197,-85.7062,A,18326,18451,18379,18351,18456,18437,18428
385,Red Head,Red Head,GA,Georgia,13001,Appling,31.8292,-82.503,A,8360,8361,8255,8260,8203,8350,8273
386,Baxley,Baxley,GA,Georgia,13003,Atkinson,31.3358,-83.0446,A,11081,11190,11188,11200,11213,11281,11372
387,Axson,Axson,GA,Georgia,13005,Bacon,31.5432,-82.4745,A,3434,3319,3365,3319,3258,3160,3150
388,Alma,Alma,GA,Georgia,13007,Baker,31.3172,-84.3376,A,45694,45118,46484,46143,45839,45431,45144
389,Elmodel,Elmodel,GA,Georgia,13009,Baldwin,33.0874,-83.2414,A,18408,18335,18233,18299,18284,18468,18397
390,Milledgeville,Milledgeville,GA,Georgia,13011,Banks,34.2557,-83.5528,A,69694,69860,70161,71325,72982,75107,77126
391,Gillsville,Gillsville,GA,Georgia,13013,Barrow,33.9917,-83.7218,A,100135,100297,100488,101206,101675,102533,103807
392,Cartersville,Cartersville,GA,Georgia,13017,Ben Hill,31.7135,-83.2515,A,17638,17575,17570,17417,17440,17354,17243
393,Fitzgerald,Fitzgerald,GA,Georgia,13019,Berrien,31.4076,-83.329,A,19343,19377,19160,19022,18790,18966,18993
394,Alapaha,Alapaha,GA,Georgia,13021,Bibb,32.8519,-83.6794,C,155587,155781,156189,154566,153914,153540,152760
395,Macon,Macon,GA,Georgia,13023,Bleckley,32.3875,-83.3523,A,13039,13063,12909,12760,12754,12782,12970
396,Atkinson,Atkinson,GA,Georgia,13027,Brooks,30.7174,-83.5652,A,18456,18570,18539,18280,18390,18449,18355
397,Dixie,Dixie,GA,Georgia,13029,Bryan,31.9203,-81.3124,A,16263,15995,15648,15664,15534,15692,15687
398,Blitchton,Blitchton,GA,Georgia,13031,Bulloch,32.4376,-81.775,A,30382,31242,32272,33120,33847,35052,36230
399,Arcola,Arcola,GA,Georgia,13033,Burke,32.9782,-82.2426,A,70580,72653,73162,71873,72735,73213,74722
400,Keysville,Keysville,GA,Georgia,13035,Butts,33.2913,-83.968,A,23338,23565,23131,22918,22709,22742,22688
401,Flovilla,Flovilla,GA,Georgia,13037,Calhoun,31.5608,-84.7374,A,23743,23565,23426,23225,23377,23548,23817
402,Leary,Leary,GA,Georgia,13039,Camden,31.0177,-81.8054,A,6704,6544,6489,6513,6423,6465,6324
403,Woodbine,Woodbine,GA,Georgia,13043,Candler,32.3959,-82.0625,A,50666,50323,51407,51490,52012,52543,53008
404,Excelsior,Excelsior,GA,Georgia,13045,Carroll,33.4359,-85.2302,A,11015,11234,11126,10951,10888,10935,10910
405,Roopville,Roopville,GA,Georgia,13047,Catoosa,34.9777,-85.2539,A,110698,110706,111444,112333,114052,114689,116261
406,Ringgold,Ringgold,GA,Georgia,13049,Charlton,31.0383,-82.0201,A,64033,64864,65004,65343,65585,65897,66398
407,Saint George,Saint George,GA,Georgia,13051,Chatham,31.9638,-81.1257,A,12838,13433,13332,13083,12921,13009,12497
408,Burroughs,Burroughs,GA,Georgia,13053,Chattahoochee,32.2327,-84.7124,C,265894,271863,276521,277992,282849,286622,289082
409,Renfroe,Renfroe,GA,Georgia,13055,Chattooga,34.352,-85.3725,A,11178,11317,12632,12436,11956,11462,10922
410,Trion,Trion,GA,Georgia,13057,Cherokee,34.3171,-84.5505,A,25956,25683,25629,25045,24849,24882,24824
411,Free Home,Free Home,GA,Georgia,13059,Clarke,33.9666,-83.2815,C,215196,217737,220788,224481,230578,235609,241689
412,Winterville,Winterville,GA,Georgia,13061,Clay,31.5198,-84.8691,A,117471,118450,120174,121040,120634,123629,124707
413,Bluffton,Bluffton,GA,Georgia,13063,Clayton,33.6064,-84.3411,A,3161,3155,3104,3037,3100,3080,3020
414,Conley,Conley,GA,Georgia,13065,Clinch,31.0732,-82.6489,A,259819,262721,266073,264668,267576,273567,279462
415,Fargo,Fargo,GA,Georgia,13067,Cobb,33.9948,-84.518,A,6779,6747,6732,6798,6824,6885,6829
416,Smyrna,Smyrna,GA,Georgia,13069,Coffee,31.5602,-82.9599,A,689697,697552,707629,716873,729146,740144,748150
417,Nicholls,Nicholls,GA,Georgia,13071,Colquitt,31.1592,-83.7708,A,42722,42981,43140,43096,42891,43071,43012
418,Norman Park,Norman Park,GA,Georgia,13073,Columbia,33.5588,-82.3183,A,45641,45840,46163,46300,46085,45755,45708
419,Grovetown,Grovetown,GA,Georgia,13075,Cook,31.1693,-83.4405,A,124986,128767,132518,136190,139281,144080,147450
420,Lenox,Lenox,GA,Georgia,13077,Coweta,33.4401,-84.7422,A,17209,17003,16908,17061,17296,17085,17167
421,East Newnan,East Newnan,GA,Georgia,13079,Crawford,32.6754,-84.0035,A,127902,129429,130793,133091,135435,138278,140526
422,Musella,Musella,GA,Georgia,13081,Crisp,31.8282,-83.7302,A,12614,12636,12659,12543,12479,12411,12322
423,Cordele,Cordele,GA,Georgia,13083,Dade,34.9365,-85.4536,A,23407,23723,23555,23230,22950,22850,22721
424,Rising Fawn,Rising Fawn,GA,Georgia,13085,Dawson,34.4361,-84.1242,A,16612,16583,16534,16463,16326,16202,16257
425,Dawsonville,Dawsonville,GA,Georgia,13087,Decatur,30.7532,-84.6399,A,22287,22209,22371,22574,22891,23256,23604
426,Bainbridge,Bainbridge,GA,Georgia,13089,DeKalb,33.8182,-84.3255,A,27810,27669,27494,27417,27269,27183,26822
427,North Atlanta,North Atlanta,GA,Georgia,13091,Dodge,32.1357,-83.1271,A,692687,698342,708800,715014,722615,732758,740321
428,Eastman,Eastman,GA,Georgia,13093,Dooly,32.2018,-83.9073,A,21769,21445,21343,21239,20969,20863,20563
429,Vienna,Vienna,GA,Georgia,13095,Dougherty,31.5555,-83.996,A,14846,14574,14344,14290,14124,13923,13763
430,Putney,Putney,GA,Georgia,13097,Douglas,33.7384,-84.7074,A,94562,94944,94590,93238,92527,91259,90017
431,Douglasville,Douglasville,GA,Georgia,13099,Early,31.3827,-84.9228,A,132646,133275,133804,136270,138447,140671,142224
432,Damascus,Damascus,GA,Georgia,13101,Echols,30.8277,-83.0538,N,10966,10751,10615,10509,10448,10487,10339
433,Tarver,Tarver,GA,Georgia,13103,Effingham,32.341,-81.4226,A,4030,4118,4010,4039,4067,4045,3962
434,Springfield,Springfield,GA,Georgia,13105,Elbert,34.0151,-82.779,A,52463,52715,53400,54488,55506,57155,58712
435,Oglesby,Oglesby,GA,Georgia,13107,Emanuel,32.6557,-82.3093,A,20097,19826,19596,19519,19410,19302,19143
436,Norristown,Norristown,GA,Georgia,13109,Evans,32.1536,-81.9305,A,22609,22580,22852,22794,22675,22659,22635
437,Bellville,Bellville,GA,Georgia,13111,Fannin,34.951,-84.3808,A,11009,10952,10664,10781,10827,10724,10670
438,Mineral Bluff,Mineral Bluff,GA,Georgia,13113,Fayette,33.4755,-84.594,A,23689,23515,23476,23714,23709,24285,24900
439,Fayetteville,Fayetteville,GA,Georgia,13115,Floyd,34.2545,-85.3544,A,106993,107208,107463,108287,109550,110546,111627
440,Lindale,Lindale,GA,Georgia,13117,Forsyth,34.2715,-84.1007,A,96423,96214,96065,96006,96061,96303,96560
441,Ducktown,Ducktown,GA,Georgia,13119,Franklin,34.4953,-83.0975,A,176770,182351,187613,194781,203679,212125,221009
442,Carnesville,Carnesville,GA,Georgia,13121,Fulton,33.7626,-84.4228,A,22075,21986,21955,22098,22247,22319,22320
443,Hapeville,Hapeville,GA,Georgia,13123,Gilmer,34.7864,-84.3839,A,925985,949323,975321,982983,994342,1007803,1023336
444,Ellijay,Ellijay,GA,Georgia,13125,Glascock,33.2334,-82.5959,A,28319,28283,28210,28593,28867,29376,29733
445,Edgehill,Edgehill,GA,Georgia,13127,Glynn,31.1836,-81.3498,A,3069,3114,3126,3069,3029,3034,3006
446,Thalmann,Thalmann,GA,Georgia,13129,Gordon,34.4053,-85.0312,A,79791,80234,81026,81601,82353,83634,84502
447,Sugar Valley,Sugar Valley,GA,Georgia,13131,Grady,30.7225,-84.3541,A,55209,55472,55674,55696,55800,56323,56904
448,Reno,Reno,GA,Georgia,13133,Greene,33.6177,-83.0756,A,25050,25169,25352,25178,25265,25124,24808
449,Penfield,Penfield,GA,Georgia,13135,Gwinnett,34.1185,-83.9917,A,16002,16085,16169,16283,16485,16734,17003
450,Berkeley Lake,Berkeley Lake,GA,Georgia,13137,Habersham,34.7258,-83.3816,A,808264,824537,839357,856374,875418,892926,907135
451,Clarkesville,Clarkesville,GA,Georgia,13139,Hall,34.2534,-83.8435,A,43081,43096,43478,43283,43688,43926,44246
452,Chestnut Mountain,Chestnut Mountain,GA,Georgia,13141,Hancock,33.3085,-82.8951,A,180002,182878,184929,187373,190215,193257,196637
453,Mayfield,Mayfield,GA,Georgia,13143,Haralson,33.7335,-85.2859,A,9419,9383,9050,8926,8542,8578,8640
454,Waco,Waco,GA,Georgia,13145,Harris,32.7987,-84.8233,A,28783,28515,28390,28445,28604,28856,29042
455,Shiloh,Shiloh,GA,Georgia,13147,Hart,34.3501,-82.9287,A,32158,32365,32611,32632,32853,33212,33652
456,Reed Creek,Reed Creek,GA,Georgia,13149,Heard,33.407,-85.2596,A,25210,25469,25582,25528,25419,25506,25553
457,Corinth,Corinth,GA,Georgia,13151,Henry,33.3436,-84.1067,A,11859,11723,11657,11565,11623,11522,11487
458,Hampton,Hampton,GA,Georgia,13153,Houston,32.3413,-83.7893,A,205142,207039,208275,210371,213439,217004,221768
459,Bonaire,Bonaire,GA,Georgia,13155,Irwin,31.5987,-83.2499,A,140746,144154,146340,148024,149236,149962,152122
460,Osierfield,Osierfield,GA,Georgia,13157,Jackson,34.1086,-83.8126,A,9596,9719,9642,9399,9133,9227,9422
461,Nicholson,Nicholson,GA,Georgia,13159,Jasper,33.3076,-83.6861,A,60750,60544,60448,60856,61700,63038,64615
462,Shady Dale,Shady Dale,GA,Georgia,13161,Jeff Davis,31.8651,-82.5994,A,13883,13774,13586,13524,13469,13624,13654
463,Roper,Roper,GA,Georgia,13163,Jefferson,32.9196,-82.3912,A,15093,15096,15134,14979,14853,14922,14877
464,Emmalane,Emmalane,GA,Georgia,13165,Jenkins,32.8071,-81.9423,A,16906,16811,16414,16345,16261,16067,15916
465,James,James,GA,Georgia,13169,Jones,33.0023,-83.5376,A,8325,8141,9143,9251,9091,8943,8849
466,Dudley,Dudley,GA,Georgia,13175,Laurens,32.5357,-82.9279,A,9980,9931,9894,9790,9685,9595,9505
467,East Dublin,East Dublin,GA,Georgia,13177,Lee,31.9013,-84.2552,A,28637,28893,28778,28740,28811,28554,28623
468,Leesburg,Leesburg,GA,Georgia,13179,Liberty,31.8506,-81.5604,A,18270,18182,18055,17956,18223,18272,18469
469,Fleming,Fleming,GA,Georgia,13181,Lincoln,33.7931,-82.4776,A,10099,10486,10480,10416,10346,10270,10399
470,Leathersville,Leathersville,GA,Georgia,13183,Long,31.7097,-81.7457,A,48401,48027,48004,47933,47814,47743,47516
471,Lincolnton,Lincolnton,GA,Georgia,13185,Lowndes,30.8503,-83.2789,A,28427,28615,28748,29089,29216,29282,29337
472,Clyattville,Clyattville,GA,Georgia,13187,Lumpkin,34.5302,-83.9796,A,62687,65139,65426,64066,65153,62529,62570
473,Kinderlou,Kinderlou,GA,Georgia,13189,McDuffie,33.4666,-82.4992,A,7968,7877,7752,7707,7589,7685,7828
474,Sapelo Island,Sapelo Island,GA,Georgia,13191,McIntosh,31.6349,-81.3962,A,14681,15244,16164,16641,17172,17799,18437
475,Meridian,Meridian,GA,Georgia,13193,Macon,32.2935,-84.0623,A,109689,111574,114214,113073,113838,113739,114628
476,Danielsville,Danielsville,GA,Georgia,13195,Madison,34.0427,-83.0387,A,30301,30495,30705,30879,31149,31294,31445
477,Ila,Ila,GA,Georgia,13197,Marion,32.3188,-84.5177,A,21830,21641,21666,21549,21558,21525,21490
478,Greenville,Greenville,GA,Georgia,13199,Meriwether,33.1724,-84.8173,A,14293,14227,13842,13991,14007,13939,13927
479,Woodbury,Woodbury,GA,Georgia,13201,Miller,31.1017,-84.6848,A,14655,14493,14304,13993,13819,13663,13450
480,Baconton,Baconton,GA,Georgia,13205,Mitchell,31.2337,-84.2089,A,28143,28118,28050,28173,28366,28396,28824
481,Sale City,Sale City,GA,Georgia,13207,Monroe,33.0221,-83.7249,A,8743,8748,8736,8639,8693,8637,8524
482,Higgston,Higgston,GA,Georgia,13209,Montgomery,32.1836,-82.5953,A,21838,21605,21325,21193,21192,21191,21074
483,Alston,Alston,GA,Georgia,13211,Morgan,33.4535,-83.5049,A,6144,6057,5971,5885,5925,5846,5926
484,Eton,Eton,GA,Georgia,13213,Murray,34.9512,-84.7363,A,23497,23448,23126,23040,22774,22493,22459
485,Spring Place,Spring Place,GA,Georgia,13215,Muscogee,32.5488,-84.7399,C,26469,26692,26741,26991,27075,27107,27306
486,Mansfield,Mansfield,GA,Georgia,13217,Newton,33.4221,-83.8521,A,9145,9101,8964,9008,8997,8994,9060
487,Oxford,Oxford,GA,Georgia,13219,Oconee,33.8613,-83.4073,A,17901,17905,17823,17726,17985,18011,18170
488,Lexington,Lexington,GA,Georgia,13221,Oglethorpe,33.7555,-83.1737,A,39541,39433,39392,39253,39355,39476,39315
489,Philomath,Philomath,GA,Georgia,13223,Paulding,33.9836,-84.9591,A,191122,195400,199466,203669,201245,199651,197485
490,Yorkville,Yorkville,GA,Georgia,13225,Peach,32.6475,-83.754,A,100169,100565,101122,102272,103790,105324,106999
491,Fort Valley,Fort Valley,GA,Georgia,13227,Pickens,34.5279,-84.494,A,32929,33273,33526,34047,35073,35872,36838
492,Mershon,Mershon,GA,Georgia,13229,Pierce,31.4088,-82.1132,A,14907,14793,14620,14533,14714,14925,14921
493,Patterson,Patterson,GA,Georgia,13231,Pike,33.0944,-84.3424,A,142770,143819,145025,147086,148962,152253,155825
494,Aragon,Aragon,GA,Georgia,13233,Polk,33.949,-85.3877,A,27750,27554,27504,26871,26838,26665,26655
495,Van Wert,Van Wert,GA,Georgia,13235,Pulaski,32.2857,-83.4491,A,29460,29471,29327,29518,29981,30301,30832
496,Hawkinsville,Hawkinsville,GA,Georgia,13237,Putnam,33.3258,-83.3886,A,18809,18738,18861,18985,19005,19130,19171
497,Finleyson,Finleyson,GA,Georgia,13239,Quitman,31.8846,-85.1074,C,17904,17789,17795,17789,17748,17943,17941
498,Mountain City,Mountain City,GA,Georgia,13241,Rabun,34.782,-83.4163,A,41537,41289,41105,41060,40967,41405,41776
499,Sky Valley,Sky Valley,GA,Georgia,13243,Randolph,31.8282,-84.8796,A,11924,11857,11692,11537,11456,11363,11251
500,Augusta,Augusta,GA,Georgia,13245,Richmond,33.2435,-81.9507,C,21199,21265,21149,21268,21125,21274,21477
501,Hephzibah,Hephzibah,GA,Georgia,13247,Rockdale,33.7046,-84.0367,A,2507,2458,2407,2370,2300,2303,2335
502,Lakeview Estates,Lakeview Estates,GA,Georgia,13249,Schley,32.238,-84.3089,A,16269,16281,16314,16211,16211,16267,16559
503,Conyers,Conyers,GA,Georgia,13251,Screven,32.9338,-81.6496,A,7671,7586,7317,7187,7283,7156,7177
504,Donalsonville,Donalsonville,GA,Georgia,13253,Seminole,30.8571,-84.778,A,200935,200509,201856,201069,201117,201401,201647
505,Iron City,Iron City,GA,Georgia,13255,Spalding,33.1851,-84.2123,A,85371,85532,85625,86670,87516,88678,89355
506,Reynoldsville,Reynoldsville,GA,Georgia,13255,Spalding,33.2779,-84.2827,A,5013,5018,4986,5057,5143,5162,5098
507,Martin,Martin,GA,Georgia,13257,Stephens,34.5204,-83.2554,A,14510,14415,14193,14179,14029,14123,14044
508,Avalon,Avalon,GA,Georgia,13259,Stewart,32.0885,-84.6625,A,8724,8774,8908,8871,8628,8606,8468
509,Leslie,Leslie,GA,Georgia,13261,Sumter,31.9548,-84.0636,A,64082,64089,63727,63619,63860,64016,64806
510,Talbotton,Talbotton,GA,Georgia,13263,Talbot,32.5789,-84.5516,A,26150,25742,25701,25552,25414,25500,25751
511,Woodland,Woodland,GA,Georgia,13265,Taliaferro,33.5545,-82.8965,A,6099,6079,6127,5541,5819,5765,5705
512,Manassas,Manassas,GA,Georgia,13267,Tattnall,32.0871,-82.1244,A,32717,32117,31641,31371,31203,30744,30389
513,Mendes,Mendes,GA,Georgia,13269,Taylor,32.5146,-84.1174,A,6835,6773,6546,6445,6381,6321,6171
514,Helena,Helena,GA,Georgia,13271,Telfair,32.0472,-82.818,A,1699,1704,1670,1688,1689,1638,1593
515,Jacksonville,Jacksonville,GA,Georgia,13273,Terrell,31.7199,-84.3478,A,25490,25303,25313,25497,25195,25205,25092
516,Ochlocknee,Ochlocknee,GA,Georgia,13275,Thomas,30.8394,-83.9782,A,8768,8468,8381,8413,8428,8314,8232
517,Meigs,Meigs,GA,Georgia,13277,Tift,31.5496,-83.5474,A,16489,16308,16418,16663,16497,16480,15965
518,Johnson Corner,Johnson Corner,GA,Georgia,13279,Toombs,32.2219,-82.4287,A,9517,9385,9244,9222,9128,9099,8967
519,Santa Claus,Santa Claus,GA,Georgia,13281,Towns,34.9355,-83.8471,A,44758,44614,44615,44932,45052,45038,45248
520,Hiawassee,Hiawassee,GA,Georgia,13283,Treutlen,32.3782,-82.5944,A,40235,41212,40998,40297,40610,40722,40828
521,Tate City,Tate City,GA,Georgia,13285,Troup,33.1675,-84.9028,A,27254,27159,27136,27182,27121,27166,27196
522,Sycamore,Sycamore,GA,Georgia,13287,Turner,31.6282,-83.7191,A,10541,10499,10504,10745,11075,11163,11391
523,Dakota,Dakota,GA,Georgia,13289,Twiggs,32.5855,-83.2273,A,6884,6818,6753,6641,6769,6755,6637
524,Salem,Salem,GA,Georgia,13293,Upson,32.8907,-84.3272,A,67091,67719,68432,68936,69451,69747,70005
525,Topeka Junction,Topeka Junction,GA,Georgia,13295,Walker,34.9664,-85.3622,A,8919,8929,8435,8194,8061,8036,8030
526,Campton,Campton,GA,Georgia,13297,Walton,33.8178,-83.8042,A,8958,8818,8513,8481,8351,8297,8171
527,Social Circle,Social Circle,GA,Georgia,13299,Ware,31.2477,-82.3677,A,21321,21363,21477,21571,21940,22251,22928
528,Warrenton,Warrenton,GA,Georgia,13301,Warren,33.4626,-82.7055,A,27066,26962,26626,26488,26229,26292,26335
529,Camak,Camak,GA,Georgia,13303,Washington,32.9826,-82.6032,A,68890,68610,68191,68288,68289,68053,67896
530,Odum,Odum,GA,Georgia,13305,Wayne,31.5383,-81.7982,A,83981,84438,84882,86011,87610,88495,90184
531,Broadhurst,Broadhurst,GA,Georgia,13307,Webster,32.066,-84.5374,C,36373,36193,35859,35760,35578,35422,35738
532,Helen,Helen,GA,Georgia,13311,White,34.6437,-83.7411,A,5795,5704,5568,5551,5500,5458,5442
533,Cleveland,Cleveland,GA,Georgia,13313,Whitfield,34.8477,-85.0408,A,21106,21022,20864,20647,20629,20804,20457
534,Abbeville,Abbeville,GA,Georgia,13315,Wilcox,31.9488,-83.4568,A,30094,30346,30362,30055,29972,29539,30104
535,Seville,Seville,GA,Georgia,13317,Wilkes,33.7902,-82.9031,A,2777,2796,2792,2702,2630,2635,2599
536,Toomsboro,Toomsboro,GA,Georgia,13319,Wilkinson,32.8866,-83.3349,A,7754,8065,7911,7915,7960,7897,7978
537,McIntyre,McIntyre,GA,Georgia,13321,Worth,31.5103,-83.7369,A,102777,103075,103193,103008,103498,103976,104589
538,Bridgeboro,Bridgeboro,HI,Hawaii,15001,Hawaii,19.6886,-155.0864,A,956325,966279,975909,984730,988586,993166,992605
539,Kapolei,Kapolei,HI,Hawaii,15003,Honolulu,21.4143,-157.9966,A,90,90,89,89,89,88,88
540,KahaluÊ»u,Kahaluu,HI,Hawaii,15005,Kalawao,21.1895,-156.9818,G,67209,67803,68558,69628,70540,71478,72029
541,WaipiÊ»o,Waipio,HI,Hawaii,15007,Kauai,21.901,-160.2017,A,154982,156759,158499,160887,163249,164269,165386
542,Honokahua,Honokahua,HI,Hawaii,15009,Maui,20.7653,-156.4454,A,393483,401118,408899,416177,426420,433467,444028
543,HoÊ»olehua,Hoolehua,ID,Idaho,16001,Ada,43.6006,-116.2316,A,3955,3982,3909,3827,3850,3839,3900
544,Meadows,Meadows,ID,Idaho,16003,Adams,44.5571,-116.434,A,83034,83584,83806,83467,83516,83911,84377
545,Cuprum,Cuprum,ID,Idaho,16005,Bannock,42.8716,-112.4656,A,5975,5962,5901,5955,5940,5901,5945
546,Nounan,Nounan,ID,Idaho,16007,Bear Lake,42.0369,-111.3963,A,9284,9168,9125,9022,9067,9035,9092
547,Saint Charles,Saint Charles,ID,Idaho,16009,Benewah,47.3146,-116.5722,A,45767,45911,45526,45412,45191,44976,45201
548,Fish Haven,Fish Haven,ID,Idaho,16009,Benewah,47.3721,-116.7635,A,21303,21085,21107,21278,21410,21548,21791
549,Blackfoot,Blackfoot,ID,Idaho,16011,Bingham,43.0816,-112.6819,A,7008,7000,6800,6727,6793,7012,7124
550,Shelley,Shelley,ID,Idaho,16013,Blaine,43.5133,-114.301,A,40918,40824,40436,40668,41511,41796,42536
551,Garden Valley,Garden Valley,ID,Idaho,16015,Boise,43.9757,-116.191,A,104687,105832,106874,107460,108381,109997,112232
552,Lowman,Lowman,ID,Idaho,16017,Bonner,48.6338,-116.9458,A,11013,10830,10838,10869,10984,11334,11681
553,Iona,Iona,ID,Idaho,16019,Bonneville,43.4868,-112.0363,A,2907,2805,2722,2626,2609,2501,2501
554,Gray,Gray,ID,Idaho,16021,Boundary,48.9983,-116.498,A,1112,1104,1080,1044,1037,1065,1072
555,Moore,Moore,ID,Idaho,16023,Butte,43.6316,-113.3017,A,189386,191376,193742,198673,202710,207086,211698
556,Darlington,Darlington,ID,Idaho,16025,Camas,43.3005,-115.0512,A,6976,6853,6773,6819,6819,6765,6887
557,Melba,Melba,ID,Idaho,16027,Canyon,43.6458,-116.6591,A,23092,23160,23291,23365,23547,23497,23504
558,Wilder,Wilder,ID,Idaho,16029,Caribou,42.9069,-111.5308,A,979,951,874,862,874,872,860
559,Heglar,Heglar,ID,Idaho,16031,Cassia,42.3075,-113.3694,A,8631,8620,8579,8582,8503,8479,8497
560,Springdale,Springdale,ID,Idaho,16033,Clark,44.3769,-112.1897,A,4360,4353,4349,4242,4150,4087,4096
561,Pierce,Pierce,ID,Idaho,16035,Clearwater,46.6299,-115.8093,A,27117,26215,26265,26236,26208,25790,26018
562,Orofino,Orofino,ID,Idaho,16037,Custer,44.0777,-113.8789,A,12795,12820,12826,12842,12956,13033,13406
563,Mountain Home,Mountain Home,ID,Idaho,16039,Elmore,43.0041,-115.204,A,13237,13132,12986,12903,12836,12813,12943
564,Pine,Pine,ID,Idaho,16041,Franklin,42.0658,-111.8377,A,16675,16720,16688,16681,16807,16907,17184
565,Island Park,Island Park,ID,Idaho,16043,Fremont,44.0734,-111.4482,A,15479,15372,15238,15109,15060,15193,15185
566,Saint Anthony,Saint Anthony,ID,Idaho,16045,Gem,43.9729,-116.3246,A,16299,16468,16407,16211,16221,16260,16156
567,Wendell,Wendell,ID,Idaho,16047,Gooding,42.8582,-114.8401,A,26221,26335,26658,26842,26988,27153,27839
568,Hagerman,Hagerman,ID,Idaho,16049,Idaho,45.4203,-116.3179,A,22463,22522,22491,22552,22719,22716,22994
569,Ririe,Ririe,ID,Idaho,16051,Jefferson,43.8429,-112.4796,A,138887,141025,142311,144299,147294,150364,154311
570,Monteview,Monteview,ID,Idaho,16053,Jerome,42.6051,-114.2089,A,37276,37884,38187,38274,38583,38723,39196
571,Coeur d'Alene,Coeur d'Alene,ID,Idaho,16055,Kootenai,47.4005,-116.9193,A,7962,7998,7778,7730,7732,7752,7723
572,Bayview,Bayview,ID,Idaho,16057,Latah,46.8003,-116.5572,A,3817,3797,3839,3819,3826,3791,3853
573,Carmen,Carmen,ID,Idaho,16059,Lemhi,44.6044,-113.912,A,5215,5141,5260,5309,5313,5309,5271
574,Baker,Baker,ID,Idaho,16061,Lewis,46.2409,-116.624,A,37605,37915,37728,37642,38060,38092,39048
575,Shoshone,Shoshone,ID,Idaho,16063,Lincoln,42.9127,-114.2663,A,20083,20204,20113,20295,20244,20387,20616
576,Richfield,Richfield,ID,Idaho,16065,Madison,43.8756,-111.7518,A,39337,39437,39562,39916,39983,40146,40369
577,Rupert,Rupert,ID,Idaho,16067,Minidoka,42.7538,-113.4899,A,4293,4234,4233,4278,4200,4289,4343
578,Heyburn,Heyburn,ID,Idaho,16069,Nez Perce,46.4968,-116.726,A,11473,11396,11398,11395,11294,11305,11389
579,Stone,Stone,ID,Idaho,16071,Oneida,42.036,-112.2147,A,22638,22559,22672,22553,22775,22837,23026
580,Gwenford,Gwenford,ID,Idaho,16073,Owyhee,42.0713,-115.1595,A,7852,7786,7809,7732,7663,7620,7654
581,Fruitland,Fruitland,ID,Idaho,16075,Payette,43.9705,-116.8187,A,12750,12689,12739,12707,12404,12455,12452
582,Payette,Payette,ID,Idaho,16077,Power,42.573,-112.8743,A,10153,10174,10083,10276,10300,10568,10960
583,Osburn,Osburn,ID,Idaho,16079,Shoshone,47.6271,-115.8585,A,77539,78050,78440,79788,80927,82107,83514
584,Mullan,Mullan,ID,Idaho,16081,Teton,43.6013,-111.1108,A,9779,9610,9515,9585,9808,10083,10496
585,Buhl,Buhl,ID,Idaho,16083,Twin Falls,42.5206,-114.8717,A,10195,10142,10054,9962,10019,9967,10172
586,Filer,Filer,ID,Idaho,16085,Valley,44.2989,-116.0782,A,67155,67207,67164,66997,67031,66974,66578
587,Cambridge,Cambridge,ID,Idaho,16087,Washington,44.2547,-116.9689,A,8214,8018,7712,7215,7074,6776,6478
588,Midvale,Midvale,IL,Illinois,17001,Adams,39.9335,-91.3797,A,17771,17675,17508,17320,17111,16924,16824
589,East Cape Girardeau,East Cape Girardeau,IL,Illinois,17003,Alexander,37.1755,-89.3518,A,54127,54168,53802,53779,53706,53490,53503
590,Elco,Elco,IL,Illinois,17005,Bond,38.8631,-89.2904,A,6913,6871,6894,6863,6838,6821,6762
591,Poplar Grove,Poplar Grove,IL,Illinois,17007,Boone,42.2544,-88.8646,A,34922,34660,34350,34096,33836,33471,33359
592,Garden Prairie,Garden Prairie,IL,Illinois,17009,Brown,40.0252,-90.6379,A,5081,5067,5021,5036,4963,4898,4894
593,Seatonville,Seatonville,IL,Illinois,17011,Bureau,41.434,-89.3959,A,15382,15221,15075,14939,14786,14628,14539
594,Wyanet,Wyanet,IL,Illinois,17013,Calhoun,38.8934,-90.579,A,13632,13634,13411,13292,13091,12869,12676
595,Lanark,Lanark,IL,Illinois,17015,Carroll,42.0142,-89.8885,A,201497,202688,203937,205365,206646,207734,208419
596,Savanna,Savanna,IL,Illinois,17017,Cass,40.0472,-90.1514,A,34785,34724,34520,34183,33882,33546,33309
597,Sadorus,Sadorus,IL,Illinois,17019,Champaign,40.1884,-88.3908,A,16299,16219,16301,16145,16119,15943,15938
598,Homer,Homer,IL,Illinois,17021,Christian,39.5328,-89.2804,A,37827,38148,38071,37879,37801,37809,37729
599,Marshall,Marshall,IL,Illinois,17023,Clark,39.2834,-87.612,A,53895,53601,53344,53046,52712,52563,52343
600,Dennison,Dennison,IL,Illinois,17025,Clay,38.8845,-88.5212,A,5199500,5214682,5230016,5240283,5239254,5224823,5203499
601,Bartelso,Bartelso,IL,Illinois,17027,Clinton,38.5552,-89.5412,A,19810,19784,19621,19495,19368,19413,19308
602,Carlyle,Carlyle,IL,Illinois,17029,Coles,39.4842,-88.1762,A,11047,11080,10942,10901,10894,10857,10858
603,Palatine,Palatine,IL,Illinois,17031,Cook,42.1515,-88.1281,A,105176,104364,104276,104148,104798,104541,104528
604,Golf,Golf,IL,Illinois,17033,Crawford,38.9967,-87.8333,A,16588,16547,16497,16385,16243,16260,16226
605,Jewett,Jewett,IL,Illinois,17035,Cumberland,39.2483,-88.1599,A,19956,19828,19822,19800,19845,19753,19630
606,Hazel Dell,Hazel Dell,IL,Illinois,17037,DeKalb,41.9312,-88.7483,A,918144,924245,927668,931296,932419,931819,929368
607,Wapella,Wapella,IL,Illinois,17039,De Witt,40.1216,-88.7496,A,18510,18412,18174,17943,17812,17644,17566
608,Kenney,Kenney,IL,Illinois,17041,Douglas,39.7992,-88.4626,A,6728,6682,6726,6671,6622,6520,6523
609,Glendale Heights,Glendale Heights,IL,Illinois,17043,DuPage,41.9807,-88.0862,A,34225,34284,34351,34312,34337,34396,34386
610,Darien,Darien,IL,Illinois,17045,Edgar,39.7556,-87.7011,A,22131,22373,22130,22145,22002,22059,21789
611,Bone Gap,Bone Gap,IL,Illinois,17047,Edwards,38.3767,-88.0581,A,14077,13945,13982,13803,13704,13726,13575
612,West Salem,West Salem,IL,Illinois,17049,Effingham,39.1866,-88.7876,A,40031,40012,39874,39574,39485,39427,39156
613,Saint Peter,Saint Peter,IL,Illinois,17051,Fayette,39.1443,-89.1105,A,37054,36950,36624,36375,35951,35750,35536
614,Bingham,Bingham,IL,Illinois,17053,Ford,40.6147,-88.1845,A,5586,5516,5419,5408,5308,5278,5212
615,Christopher,Christopher,IL,Illinois,17055,Franklin,38.0892,-88.9028,A,13882,13851,13631,13511,13402,13313,13093
616,Mulkeytown,Mulkeytown,IL,Illinois,17057,Fulton,40.3902,-90.0024,A,50119,50073,50168,50177,50409,50499,50437
617,Ridgway,Ridgway,IL,Illinois,17059,Gallatin,37.8892,-88.2131,A,8452,8422,8372,8329,8295,8198,8061
618,Junction,Junction,IL,Illinois,17061,Greene,39.2948,-90.4062,A,19085,19034,18893,18603,18621,18539,18508
619,South Wilmington,South Wilmington,IL,Illinois,17063,Grundy,41.1726,-88.2662,A,4305,4285,4263,4249,4217,4113,4024
620,Carbon Hill,Carbon Hill,IL,Illinois,17065,Hamilton,38.1478,-88.6028,A,7332,7217,7049,6957,6985,6971,6869
621,Carthage,Carthage,IL,Illinois,17067,Hancock,40.3954,-91.2493,A,50448,50316,50160,49831,49673,49459,49280
622,Warsaw,Warsaw,IL,Illinois,17069,Hardin,37.4708,-88.1659,A,29677,29518,29300,28982,28804,28651,28334
623,Raritan,Raritan,IL,Illinois,17071,Henderson,40.8076,-91.0845,A,60381,60290,58962,59593,59293,59220,58870
624,Gladstone,Gladstone,IL,Illinois,17073,Henry,41.3514,-90.3766,A,9708,9741,9646,9574,9615,9591,9536
625,Milford,Milford,IL,Illinois,17075,Iroquois,40.9673,-87.7161,A,38762,38759,38666,38657,38442,38390,38460
626,Pittwood,Pittwood,IL,Illinois,17077,Jackson,37.6281,-89.3368,A,22966,22872,22732,22620,22523,22306,22025
627,Newton,Newton,IL,Illinois,17079,Jasper,39.1559,-88.1491,A,22648,22640,22496,22332,22298,22034,21770
628,Rose Hill,Rose Hill,IL,Illinois,17081,Jefferson,38.2317,-88.7391,A,364,364,362,359,359,355,351
629,Elsah,Elsah,IL,Illinois,17083,Jersey,38.9765,-90.4259,A,12609,12852,12912,12845,12834,12837,12902
630,Fieldon,Fieldon,IL,Illinois,17085,Jo Daviess,42.4948,-89.9913,A,516030,519723,521431,523590,526636,529702,531715
631,Simpson,Simpson,IL,Illinois,17087,Johnson,37.3431,-88.7198,A,113447,113518,112976,112227,111461,110795,110008
632,Tunnel Hill,Tunnel Hill,IL,Illinois,17089,Kane,41.8838,-88.4615,A,115383,116856,118344,119709,121565,122946,124695
633,Aroma Park,Aroma Park,IL,Illinois,17091,Kankakee,41.2505,-87.8442,A,52932,52693,52302,52149,51953,51416,50938
634,Sammons Point,Sammons Point,IL,Illinois,17093,Kendall,41.5368,-88.5803,A,704348,700893,701220,703411,703357,703413,703047
635,Victoria,Victoria,IL,Illinois,17095,Knox,40.8039,-90.4009,A,113828,113671,113109,112687,111933,111304,110642
636,Altona,Altona,IL,Illinois,17097,Lake,42.287,-87.967,A,16927,16833,16682,16745,16595,16513,16377
637,Baker,Baker,IL,Illinois,17099,LaSalle,41.588,-88.9229,A,35931,35518,35114,35008,34789,34427,34251
638,Marseilles,Marseilles,IL,Illinois,17101,Lawrence,38.8196,-87.5301,A,38872,38840,38553,37444,37116,36749,36526
639,Nelson,Nelson,IL,Illinois,17103,Lee,41.8493,-89.0149,A,30274,30308,30388,29890,29755,29540,29527
640,West Brooklyn,West Brooklyn,IL,Illinois,17105,Livingston,41.0985,-88.4237,A,32607,32485,32516,32167,31615,31342,30996
641,Lawndale,Lawndale,IL,Illinois,17107,Logan,39.9706,-89.3501,A,309119,307820,307529,306944,306749,307188,307004
642,Broadwell,Broadwell,IL,Illinois,17109,McDonough,40.3269,-90.6082,A,169857,170789,172560,174777,173843,172673,172418
643,Woodstock,Woodstock,IL,Illinois,17111,McHenry,42.4646,-88.4343,A,110779,110624,110083,109533,108479,107377,106550
644,Lawrence,Lawrence,IL,Illinois,17113,McLean,40.3993,-88.8911,A,47791,47797,47179,46851,46381,46089,45908
645,Warrensburg,Warrensburg,IL,Illinois,17115,Macon,39.9369,-88.8695,A,269384,268552,268083,267246,266637,266071,265759
646,Niantic,Niantic,IL,Illinois,17117,Macoupin,39.0405,-90.1405,A,39449,39004,38919,38594,38486,38378,38140
647,Dorsey,Dorsey,IL,Illinois,17119,Madison,38.7605,-89.6808,A,12625,12492,12274,12115,11990,11980,11939
648,Roxana,Roxana,IL,Illinois,17121,Marion,38.8014,-89.0896,A,14651,14479,14346,14194,13920,13689,13507
649,Wenona,Wenona,IL,Illinois,17123,Marshall,41.0296,-89.4411,A,15409,15325,15149,14974,14881,14752,14658
650,Toluca,Toluca,IL,Illinois,17125,Mason,40.4206,-89.7809,A,12706,12729,12726,12605,12578,12454,12516
651,Oakford,Oakford,IL,Illinois,17129,Menard,39.9457,-89.9365,A,16415,16346,16190,16133,15964,15839,15730
652,Lake Petersburg,Lake Petersburg,IL,Illinois,17131,Mercer,41.1273,-90.6415,A,33010,33229,33321,33547,33684,33893,34068
653,Columbia,Columbia,IL,Illinois,17133,Monroe,38.3054,-89.9934,A,30089,29841,29605,29329,29424,29196,28952
654,Maeystown,Maeystown,IL,Illinois,17135,Montgomery,39.131,-89.495,A,35519,35526,35365,35027,34729,34605,34277
655,Waverly,Waverly,IL,Illinois,17137,Morgan,39.7292,-90.232,A,14858,14929,14984,14933,14911,14921,14827
656,Woodson,Woodson,IL,Illinois,17139,Moultrie,39.4582,-88.4964,A,53443,53150,52834,52341,52067,51657,51273
657,Davis Junction,Davis Junction,IL,Illinois,17141,Ogle,41.9124,-89.3689,A,186218,186624,187121,188377,187272,186315,185006
658,Monroe Center,Monroe Center,IL,Illinois,17143,Peoria,40.7466,-89.5701,A,22329,22289,21862,21742,21558,21458,21357
659,Tamaroa,Tamaroa,IL,Illinois,17145,Perry,38.0645,-89.2401,A,16724,16692,16523,16444,16438,16380,16560
660,Swanwick,Swanwick,IL,Illinois,17147,Piatt,40.1061,-88.5601,A,16386,16360,16261,16105,15974,15981,15950
661,Florence,Florence,IL,Illinois,17149,Pike,39.6201,-90.676,A,4455,4493,4333,4338,4241,4204,4157
662,Herod,Herod,IL,Illinois,17151,Pope,37.5506,-88.6706,A,6134,6002,5968,5895,5808,5672,5619
663,Brownfield,Brownfield,IL,Illinois,17153,Pulaski,37.1827,-89.0849,A,5999,5971,5880,5815,5788,5636,5611
664,Mark,Mark,IL,Illinois,17155,Putnam,41.114,-89.1958,A,33459,33334,32987,33122,33092,32846,32621
665,McNabb,McNabb,IL,Illinois,17157,Randolph,38.0094,-89.9099,A,16216,16227,16182,16097,16107,16043,15930
666,Claremont,Claremont,IL,Illinois,17159,Richland,38.835,-88.085,A,147631,147411,147638,147509,146789,145958,144784
667,Olney,Olney,IL,Illinois,17161,Rock Island,41.4416,-90.5595,A,270370,270001,268612,266807,265587,264079,262759
668,Floraville,Floraville,IL,Illinois,17163,St. Clair,38.5976,-89.9156,A,24933,24954,24970,24863,24580,24574,24307
669,Brooklyn,Brooklyn,IL,Illinois,17165,Saline,37.7373,-88.5457,A,197801,198905,199269,198973,198959,198496,197499
670,Loami,Loami,IL,Illinois,17167,Sangamon,39.5698,-89.6539,A,7542,7473,7458,7362,7238,7043,6923
671,Jerome,Jerome,IL,Illinois,17169,Schuyler,40.234,-90.6223,A,5335,5232,5293,5208,5177,5114,5053
672,Glasgow,Glasgow,IL,Illinois,17171,Scott,39.6298,-90.456,A,22362,22307,22252,22177,22109,21801,21717
673,Bluffs,Bluffs,IL,Illinois,17173,Shelby,39.4389,-88.5953,A,5969,5840,5937,5886,5836,5764,5776
674,Lafayette,Lafayette,IL,Illinois,17175,Stark,41.1773,-89.6582,A,47657,47365,46938,46721,46339,45791,45624
675,West Jersey,West Jersey,IL,Illinois,17177,Stephenson,42.2895,-89.6354,A,135478,135776,136111,136203,135567,134735,134385
676,Creve Coeur,Creve Coeur,IL,Illinois,17179,Tazewell,40.3398,-89.3143,A,17746,17696,17639,17577,17463,17399,17212
677,Heritage Lake,Heritage Lake,IL,Illinois,17181,Union,37.451,-89.2666,A,81617,81380,80774,80495,79695,78990,78111
678,Jamaica,Jamaica,IL,Illinois,17183,Vermilion,40.225,-87.8039,A,11907,11819,11722,11628,11541,11554,11492
679,Jamesburg,Jamesburg,IL,Illinois,17185,Wabash,38.3518,-87.8684,A,17712,17842,17736,17627,17809,17507,17378
680,Venedy,Venedy,IL,Illinois,17189,Washington,38.3757,-89.1805,A,14699,14602,14618,14432,14394,14246,14154
681,Ashley,Ashley,IL,Illinois,17191,Wayne,38.3588,-88.2047,A,16747,16630,16624,16608,16532,16427,16396
682,Calvin,Calvin,IL,Illinois,17193,White,37.9789,-88.3279,A,14611,14596,14562,14502,14343,14349,14292
683,Maunie,Maunie,IL,Illinois,17195,Whiteside,41.6098,-89.6874,A,58495,58235,57786,57446,57046,56963,56536
684,Crest Hill,Crest Hill,IL,Illinois,17197,Will,41.4072,-88.1273,A,678914,680501,682091,683474,685109,686687,689529
685,Romeoville,Romeoville,IL,Illinois,17199,Williamson,37.751,-89.0599,A,66438,66741,66793,67387,67350,67589,67560
686,Winnebago,Winnebago,IL,Illinois,17201,Winnebago,42.2598,-89.0641,A,295106,293620,291934,290868,288639,287168,285873
687,Durand,Durand,IL,Illinois,17203,Woodford,40.7959,-89.3688,A,38657,38924,38943,39171,39204,39158,39140
688,Washburn,Washburn,IN,Indiana,18001,Adams,40.7452,-84.9413,A,34455,34384,34439,34664,34764,34967,35232
689,Aboite,Aboite,IN,Indiana,18003,Allen,41.0669,-85.0282,A,355888,358759,360753,363265,365361,368040,370404
690,Woodburn,Woodburn,IN,Indiana,18005,Bartholomew,39.0599,-85.8877,A,76845,77626,78927,79491,80182,81011,81402
691,Earl Park,Earl Park,IN,Indiana,18007,Benton,40.5173,-87.376,A,8855,8861,8812,8722,8689,8674,8650
692,Oxford,Oxford,IN,Indiana,18009,Blackford,40.4084,-85.275,A,12751,12661,12535,12470,12379,12287,12149
693,Zionsville,Zionsville,IN,Indiana,18011,Boone,39.9954,-86.6204,A,56846,57885,59070,60479,61820,63400,64653
694,Ulen,Ulen,IN,Indiana,18013,Brown,39.2656,-86.3369,A,15204,15065,15051,15031,14911,14919,14912
695,Camden,Camden,IN,Indiana,18015,Carroll,40.6411,-86.5739,A,20182,20095,20129,20110,19937,19890,19970
696,Flora,Flora,IN,Indiana,18017,Cass,40.8644,-86.5,A,38975,38876,38710,38504,38381,38078,37946
697,Otisco,Otisco,IN,Indiana,18019,Clark,38.4892,-85.7679,A,110560,111538,111912,112746,114185,115090,116031
698,Henryville,Henryville,IN,Indiana,18021,Clay,39.5991,-87.1078,A,26851,26882,26825,26734,26486,26485,26309
699,Kirklin,Kirklin,IN,Indiana,18023,Clinton,40.3458,-86.6674,A,33203,33041,32942,32883,32610,32567,32457
700,Rossville,Rossville,IN,Indiana,18025,Crawford,38.3408,-86.4592,A,10716,10606,10650,10584,10628,10510,10539
701,Glendale,Glendale,IN,Indiana,18027,Daviess,38.7567,-87.11,A,31746,31951,32139,32276,32697,32836,32969
702,Washington,Washington,IN,Indiana,18029,Dearborn,39.2935,-84.9641,A,50101,50002,49751,49751,49451,49475,49331
703,Clarksburg,Clarksburg,IN,Indiana,18031,Decatur,39.3098,-85.3271,A,25790,25877,26049,26208,26452,26393,26598
704,Greensburg,Greensburg,IN,Indiana,18033,DeKalb,41.4317,-85.0299,A,42295,42457,42304,42376,42461,42557,42746
705,Albany,Albany,IN,Indiana,18035,Delaware,40.3138,-85.5009,A,117690,117872,117090,116989,116612,116019,115603
706,Muncie,Muncie,IN,Indiana,18037,Dubois,38.2461,-87.038,A,41906,42195,42090,42320,42341,42421,42552
707,Bristol,Bristol,IN,Indiana,18039,Elkhart,41.5005,-85.8248,A,197473,198495,199172,200354,201609,203284,203781
708,Wakarusa,Wakarusa,IN,Indiana,18041,Fayette,39.5539,-85.1758,A,24334,24154,23953,23850,23479,23426,23331
709,Georgetown,Georgetown,IN,Indiana,18043,Floyd,38.3513,-85.9372,A,74706,75030,75344,76099,76257,76761,76990
710,Greenville,Greenville,IN,Indiana,18045,Fountain,40.2877,-87.2449,A,17272,17135,17103,16878,16704,16536,16486
711,New Trenton,New Trenton,IN,Indiana,18047,Franklin,39.4232,-85.0114,A,23063,23001,22993,22924,22913,22890,22715
712,Andersonville,Andersonville,IN,Indiana,18049,Fulton,41.0388,-86.0249,A,20818,20748,20655,20434,20502,20328,20139
713,Fort Branch,Fort Branch,IN,Indiana,18051,Gibson,38.3332,-87.4478,A,33554,33551,33565,33556,33833,33762,33703
714,Patoka,Patoka,IN,Indiana,18053,Grant,40.5145,-85.7815,A,69936,69702,69198,69011,68505,67692,66937
715,Linton,Linton,IN,Indiana,18055,Greene,39.0349,-87.0534,A,33168,33078,33001,32781,32720,32450,32211
716,Worthington,Worthington,IN,Indiana,18057,Hamilton,40.2134,-86.0264,A,276503,283302,289681,296918,303065,309172,316373
717,Fortville,Fortville,IN,Indiana,18059,Hancock,39.7767,-85.8536,A,70225,70377,70645,71086,71933,72392,73717
718,New Palestine,New Palestine,IN,Indiana,18061,Harrison,38.1019,-86.2754,A,39351,39205,39064,39065,39255,39639,39826
719,Stilesville,Stilesville,IN,Indiana,18063,Hendricks,39.6889,-86.6127,A,145864,148646,150773,153584,156059,158059,160610
720,Greensboro,Greensboro,IN,Indiana,18065,Henry,39.919,-85.3697,A,49487,49354,49256,49035,49057,48894,48521
721,Spiceland,Spiceland,IN,Indiana,18067,Howard,40.464,-86.1277,A,82727,82856,82914,82840,82739,82581,82568
722,Roanoke,Roanoke,IN,Indiana,18069,Huntington,40.8605,-85.6023,A,37114,37186,36993,36823,36658,36607,36400
723,Warren,Warren,IN,Indiana,18071,Jackson,38.8462,-86.0992,A,42577,42940,43028,43484,43717,43941,44013
724,Gifford,Gifford,IN,Indiana,18073,Jasper,40.9381,-87.1683,A,33512,33420,33473,33417,33481,33501,33433
725,Remington,Remington,IN,Indiana,18075,Jay,40.3481,-85.1524,A,21174,21376,21368,21268,21143,21155,21046
726,Deputy,Deputy,IN,Indiana,18077,Jefferson,38.7581,-85.3971,A,32421,32296,32510,32488,32531,32465,32418
727,Canaan,Canaan,IN,Indiana,18079,Jennings,38.9853,-85.6106,A,28474,28195,28182,28279,27985,27913,27758
728,Edinburgh,Edinburgh,IN,Indiana,18081,Johnson,39.4934,-86.0545,A,140281,141754,143535,145634,147346,149338,151982
729,Princes Lakes,Princes Lakes,IN,Indiana,18083,Knox,38.8127,-87.2512,A,38390,38473,38019,38103,38021,37891,37744
730,Mentone,Mentone,IN,Indiana,18085,Kosciusko,41.2443,-85.8479,A,77336,77359,77731,78050,78619,78815,79092
731,Claypool,Claypool,IN,Indiana,18087,LaGrange,41.6112,-85.5411,A,37156,37497,37651,38095,38450,38671,39110
732,Hobart,Hobart,IN,Indiana,18089,Lake,41.5484,-87.4588,A,495970,494729,493071,491354,490572,487649,485846
733,Lake Hills,Lake Hills,IN,Indiana,18091,LaPorte,41.6743,-86.6207,A,111454,111202,111201,111323,111665,110762,110015
734,Bedford,Bedford,IN,Indiana,18093,Lawrence,38.7364,-86.4746,A,46124,46086,46032,45835,45611,45485,45518
735,Alexandria,Alexandria,IN,Indiana,18095,Madison,40.2743,-85.8371,A,131639,131015,130243,130388,129886,129495,129296
736,Summitville,Summitville,IN,Indiana,18097,Marion,39.8442,-86.1833,C,904699,910861,918692,928521,934212,938058,941229
737,Bremen,Bremen,IN,Indiana,18099,Marshall,41.3482,-86.3188,A,47007,46951,46972,46945,46938,46756,46556
738,Bourbon,Bourbon,IN,Indiana,18101,Martin,38.7964,-86.765,A,10366,10331,10314,10216,10196,10191,10171
739,Peru,Peru,IN,Indiana,18103,Miami,40.577,-85.8779,A,36799,36590,36504,36145,36031,35902,35883
740,Macy,Macy,IN,Indiana,18105,Monroe,39.1092,-86.54,A,138559,140196,141311,141934,143462,144257,145496
741,Alamo,Alamo,IN,Indiana,18107,Montgomery,39.9647,-86.7145,A,38088,38324,38171,38085,38043,38167,38074
742,New Richmond,New Richmond,IN,Indiana,18109,Morgan,39.4227,-86.4208,A,69163,69191,69204,69375,69596,69646,69698
743,Goodland,Goodland,IN,Indiana,18111,Newton,41.1308,-87.439,A,14240,14114,14062,14034,14086,14002,13924
744,Roselawn,Roselawn,IN,Indiana,18113,Noble,41.3637,-85.2317,A,47477,47458,47429,47501,47610,47759,47638
745,Wolcottville,Wolcottville,IN,Indiana,18115,Ohio,38.9531,-84.8544,A,6109,6089,6107,6026,6014,5936,5932
746,Kendallville,Kendallville,IN,Indiana,18117,Orange,38.5676,-86.612,A,19803,19890,19677,19724,19645,19516,19335
747,Gosport,Gosport,IN,Indiana,18119,Owen,39.1742,-86.6844,A,21581,21516,21362,21176,21004,20809,20840
748,Cataract,Cataract,IN,Indiana,18121,Parke,39.7271,-87.3317,A,17279,17107,17089,17191,17207,16878,16800
749,Tell City,Tell City,IN,Indiana,18123,Perry,38.0303,-86.5272,A,19415,19461,19416,19443,19359,19322,18966
750,Troy,Troy,IN,Indiana,18125,Pike,38.4367,-87.1856,A,12776,12689,12716,12588,12561,12476,12431
751,Shorewood Forest,Shorewood Forest,IN,Indiana,18127,Porter,41.325,-87.2024,A,164558,165519,165772,166552,167336,167631,167791
752,Wheeler,Wheeler,IN,Indiana,18129,Posey,38.1291,-87.9308,A,25856,25696,25627,25504,25538,25490,25476
753,Winamac,Winamac,IN,Indiana,18131,Pulaski,40.9854,-86.8836,A,13357,13284,13060,12996,12965,12871,12660
754,Denham,Denham,IN,Indiana,18133,Putnam,39.8569,-86.9831,A,37907,37902,37725,37605,37745,37621,37436
755,Losantville,Losantville,IN,Indiana,18135,Randolph,40.1995,-84.8206,A,26178,26027,25856,25610,25336,25133,25082
756,Saratoga,Saratoga,IN,Indiana,18137,Ripley,39.2974,-85.2139,A,28831,28744,28571,28501,28549,28699,28846
757,Carthage,Carthage,IN,Indiana,18139,Rush,39.4981,-85.4676,A,17368,17314,17133,17001,16859,16725,16649
758,Mays,Mays,IN,Indiana,18141,St. Joseph,41.6934,-86.38,A,266791,266710,266612,266972,267620,268134,269141
759,Blocher,Blocher,IN,Indiana,18143,Scott,38.7417,-85.8118,A,24174,23925,23769,23804,23661,23707,23730
760,Nabb,Nabb,IN,Indiana,18145,Shelby,39.4734,-85.9228,A,44321,44349,44345,44422,44487,44442,44324
761,Santa Claus,Santa Claus,IN,Indiana,18147,Spencer,38.1212,-86.9986,A,20880,21049,20866,20824,20818,20727,20648
762,Chrisney,Chrisney,IN,Indiana,18149,Starke,41.3792,-86.5832,A,23358,23206,23195,23189,23011,22940,23009
763,Pleasant Lake,Pleasant Lake,IN,Indiana,18151,Steuben,41.5318,-85.0842,A,34135,34070,34164,34346,34427,34343,34116
764,Metz,Metz,IN,Indiana,18153,Sullivan,38.9948,-87.26,A,21409,21234,21216,21172,21013,20927,20802
765,Vevay,Vevay,IN,Indiana,18155,Switzerland,38.8702,-84.9889,A,10625,10561,10395,10517,10470,10509,10527
766,Florence,Florence,IN,Indiana,18157,Tippecanoe,40.2878,-87.0742,A,173046,175513,178430,181242,183515,185741,188059
767,Windfall,Windfall,IN,Indiana,18159,Tipton,40.2817,-86.0423,A,15883,15855,15728,15582,15452,15292,15182
768,Sharpsville,Sharpsville,IN,Indiana,18161,Union,39.5694,-84.819,A,7533,7475,7334,7288,7224,7195,7212
769,Inglefield,Inglefield,IN,Indiana,18163,Vanderburgh,38.0938,-87.5793,A,179857,180372,181031,181693,182073,181941,181721
770,Kasson,Kasson,IN,Indiana,18165,Vermillion,40.0825,-87.4997,A,16139,16103,15941,15858,15684,15634,15645
771,Tecumseh,Tecumseh,IN,Indiana,18167,Vigo,39.583,-87.4646,A,107899,108296,108528,108226,108100,107708,107931
772,Fontanet,Fontanet,IN,Indiana,18169,Wabash,40.8034,-85.8301,A,32856,32587,32437,32354,32255,32075,31762
773,Marshfield,Marshfield,IN,Indiana,18171,Warren,40.2884,-87.2922,A,8502,8480,8391,8378,8330,8280,8166
774,Salem,Salem,IN,Indiana,18175,Washington,38.6514,-86.2613,A,59850,60231,60458,61054,61229,61894,62498
775,Saltillo,Saltillo,IN,Indiana,18177,Wayne,39.8472,-84.8912,A,28282,28182,27911,27791,27869,27721,27670
776,Poneto,Poneto,IN,Indiana,18179,Wells,40.8769,-85.1683,A,68902,68663,68304,67854,67406,66984,66568
777,Domestic,Domestic,IN,Indiana,18181,White,40.8642,-86.8787,A,27678,27747,27713,27744,27839,27937,27949
778,Larwill,Larwill,IN,Indiana,18183,Whitley,41.2507,-85.4433,A,24683,24518,24390,24328,24383,24224,23999
779,South Whitley,South Whitley,IA,Iowa,19001,Adair,41.3667,-94.3183,A,7665,7565,7493,7440,7416,7211,7092
780,Prescott,Prescott,IA,Iowa,19003,Adams,40.9366,-94.8954,A,4026,3996,3905,3890,3865,3758,3693
781,Corning,Corning,IA,Iowa,19005,Allamakee,43.2084,-91.296,A,14350,14204,14134,14043,14064,13882,13884
782,Cincinnati,Cincinnati,IA,Iowa,19007,Appanoose,40.6854,-92.6765,A,12859,12863,12702,12645,12649,12551,12462
783,Udell,Udell,IA,Iowa,19009,Audubon,41.8418,-94.9859,A,6112,6019,5883,5882,5785,5738,5678
784,Urbana,Urbana,IA,Iowa,19011,Benton,41.8931,-91.985,A,26055,26121,25855,25724,25658,25663,25699
785,Keystone,Keystone,IA,Iowa,19013,Black Hawk,42.4694,-92.2296,A,131176,131460,131761,132780,133161,133499,132904
786,Jordan,Jordan,IA,Iowa,19015,Boone,41.9465,-94.1136,A,26278,26337,26228,26359,26367,26571,26532
787,Boxholm,Boxholm,IA,Iowa,19017,Bremer,42.669,-92.3342,A,24286,24368,24477,24588,24673,24779,24798
788,Stanley,Stanley,IA,Iowa,19019,Buchanan,42.5986,-91.6404,A,20958,20901,20964,20996,21120,21084,20992
789,Brandon,Brandon,IA,Iowa,19021,Buena Vista,42.7816,-94.9491,A,20324,20244,20543,20552,20507,20289,20332
790,Parkersburg,Parkersburg,IA,Iowa,19023,Butler,42.8332,-93.0054,A,14906,14960,14991,15017,14972,14896,14791
791,Bristow,Bristow,IA,Iowa,19025,Calhoun,42.2676,-94.7311,A,10171,10072,9924,9922,9861,9828,9846
792,Arcadia,Arcadia,IA,Iowa,19027,Carroll,42.0051,-94.972,A,20828,20857,20685,20582,20562,20507,20437
793,Templeton,Templeton,IA,Iowa,19029,Cass,41.2311,-94.9844,A,13935,13783,13711,13582,13359,13354,13157
794,Lowden,Lowden,IA,Iowa,19031,Cedar,41.7401,-90.9736,A,18490,18418,18402,18338,18388,18362,18454
795,Mechanicsville,Mechanicsville,IA,Iowa,19033,Cerro Gordo,42.922,-93.0359,A,44116,43978,43723,43506,43227,42988,43070
796,Marcus,Marcus,IA,Iowa,19035,Cherokee,42.8125,-95.7127,A,12112,12023,11959,11894,11832,11567,11508
797,Meriden,Meriden,IA,Iowa,19037,Chickasaw,42.9501,-92.5417,A,12426,12423,12284,12228,12200,12085,12023
798,Jamison,Jamison,IA,Iowa,19039,Clarke,41.0302,-93.783,A,9312,9314,9351,9252,9210,9245,9309
799,Woodburn,Woodburn,IA,Iowa,19041,Clay,42.9497,-95.0129,A,16634,16610,16576,16480,16509,16491,16333
800,Volga,Volga,IA,Iowa,19043,Clayton,43.0594,-91.4557,A,18082,17992,17926,17771,17713,17674,17590
801,McGregor,McGregor,IA,Iowa,19045,Clinton,41.9621,-90.4682,A,49112,49100,48716,48293,47923,47617,47309
802,Deloit,Deloit,IA,Iowa,19047,Crawford,42.1281,-95.5749,A,17164,17250,17325,17328,17146,16998,16940
803,Schleswig,Schleswig,IA,Iowa,19049,Dallas,41.5154,-94.2276,A,66699,69759,72271,75010,77798,80777,84516
804,Belknap,Belknap,IA,Iowa,19051,Davis,40.7486,-92.2027,A,8770,8760,8697,8762,8745,8777,8860
805,Bloomfield,Bloomfield,IA,Iowa,19053,Decatur,40.8266,-93.6072,A,8421,8261,8255,8240,8231,8185,8141
806,Delaware,Delaware,IA,Iowa,19055,Delaware,42.4828,-91.2702,A,17769,17652,17578,17499,17413,17406,17327
807,Greeley,Greeley,IA,Iowa,19057,Des Moines,40.8072,-91.1249,A,40257,40095,40265,40437,40143,39985,39739
808,Milford,Milford,IA,Iowa,19059,Dickinson,43.3599,-95.1259,A,16669,16889,16986,16944,16937,17122,17243
809,Superior,Superior,IA,Iowa,19059,Dickinson,43.3742,-95.1744,A,93926,94564,95211,95964,96582,97034,97003
810,Arnolds Park,Arnolds Park,IA,Iowa,19061,Dubuque,42.4438,-91.0091,A,10282,10081,9964,9904,9841,9732,9658
811,Estherville,Estherville,IA,Iowa,19063,Emmet,43.3519,-94.5419,A,20859,20979,20803,20528,20345,20223,20054
812,Ringsted,Ringsted,IA,Iowa,19065,Fayette,43.0666,-91.9342,A,16300,16098,16107,16062,16026,15954,15873
813,Floyd,Floyd,IA,Iowa,19067,Floyd,43.1275,-92.9046,A,10692,10693,10523,10522,10442,10308,10170
814,Marble Rock,Marble Rock,IA,Iowa,19069,Franklin,42.8928,-93.2088,A,7430,7371,7143,7065,7034,6902,6950
815,Farragut,Farragut,IA,Iowa,19071,Fremont,40.8854,-95.7947,A,9350,9320,9171,9145,9129,8960,9011
816,Randolph,Randolph,IA,Iowa,19073,Greene,42.1642,-94.255,A,12457,12474,12440,12324,12376,12413,12313
817,Grundy Center,Grundy Center,IA,Iowa,19075,Grundy,42.3225,-92.5943,A,10947,10872,10777,10679,10710,10663,10625
818,Stout,Stout,IA,Iowa,19077,Guthrie,41.852,-94.5578,A,15640,15460,15327,15330,15189,15213,15076
819,Stratford,Stratford,IA,Iowa,19079,Hamilton,42.3101,-93.5819,A,11307,11271,11165,11061,10986,10985,10835
820,Jewell,Jewell,IA,Iowa,19081,Hancock,43.0098,-93.6014,A,17537,17402,17353,17413,17354,17276,17226
821,Iowa Falls,Iowa Falls,IA,Iowa,19083,Hardin,42.3606,-93.1013,A,14927,14797,14522,14415,14342,14248,14149
822,Hubbard,Hubbard,IA,Iowa,19085,Harrison,41.8304,-95.9264,A,20112,20286,20044,20103,19895,19892,19773
823,Westwood,Westwood,IA,Iowa,19087,Henry,40.8374,-91.7125,A,9561,9538,9576,9476,9400,9367,9332
824,Olds,Olds,IA,Iowa,19089,Howard,43.3621,-92.5541,A,9799,9790,9720,9667,9617,9546,9487
825,Bradgate,Bradgate,IA,Iowa,19091,Humboldt,42.7269,-94.4369,A,7067,7079,7091,7130,6994,7004,6985
826,Dakota City,Dakota City,IA,Iowa,19093,Ida,42.3353,-95.3469,A,16338,16352,16218,16344,16378,16381,16311
827,East Amana,East Amana,IA,Iowa,19095,Iowa,41.8272,-92.2055,A,19832,19724,19693,19549,19476,19454,19472
828,Williamsburg,Williamsburg,IA,Iowa,19097,Jackson,42.1536,-90.3221,A,36819,36631,36566,36743,36830,36729,36708
829,Valeria,Valeria,IA,Iowa,19099,Jasper,41.8252,-93.1525,A,16825,17039,17201,17493,17671,17853,18090
830,Lambs Grove,Lambs Grove,IA,Iowa,19101,Jefferson,41.1327,-92.0825,A,131293,133715,136865,139773,142280,144567,146547
831,Solon,Solon,IA,Iowa,19103,Johnson,41.572,-91.7321,A,20671,20739,20595,20494,20480,20395,20439
832,Coralville,Coralville,IA,Iowa,19105,Jones,41.9977,-91.1417,A,10497,10368,10397,10305,10220,10129,10119
833,Richland,Richland,IA,Iowa,19107,Keokuk,41.2646,-92.2477,A,15525,15392,15373,15282,15204,15155,15114
834,Harper,Harper,IA,Iowa,19109,Kossuth,43.0634,-94.4251,A,35838,35586,35610,35359,35206,35071,34615
835,Saint Paul,Saint Paul,IA,Iowa,19111,Lee,40.667,-91.5118,A,211682,214022,215255,216077,217596,219792,221661
836,Fort Madison,Fort Madison,IA,Iowa,19113,Linn,42.1843,-91.7794,A,11362,11366,11340,11321,11222,11231,11142
837,Columbus Junction,Columbus Junction,IA,Iowa,19115,Louisa,41.294,-91.4658,A,8891,8838,8754,8722,8685,8692,8647
838,Morning Sun,Morning Sun,IA,Iowa,19117,Lucas,41.0883,-93.2568,A,11567,11720,11772,11687,11690,11749,11754
839,Little Rock,Little Rock,IA,Iowa,19119,Lyon,43.385,-96.0945,A,15734,15735,15639,15471,15602,15746,15848
840,Alvord,Alvord,IA,Iowa,19121,Madison,41.3456,-94.0136,A,22401,22510,22419,22403,22326,22291,22181
841,Oskaloosa,Oskaloosa,IA,Iowa,19123,Mahaska,41.4008,-92.6402,A,33232,33319,33315,33077,33261,33141,33189
842,Leighton,Leighton,IA,Iowa,19125,Marion,41.1753,-93.1499,A,40695,40990,41053,41004,40792,40512,40312
843,State Center,State Center,IA,Iowa,19127,Marshall,41.9416,-93.1027,A,15058,15014,14853,14859,14708,14815,14972
844,Le Grand,Le Grand,IA,Iowa,19129,Mills,41.018,-95.7996,A,10806,10721,10746,10718,10769,10787,10763
845,Little Cedar,Little Cedar,IA,Iowa,19131,Mitchell,43.2839,-92.6422,A,9233,9262,9138,9092,8965,8974,8898
846,Osage,Osage,IA,Iowa,19133,Monona,42.1272,-96.1508,A,7986,8044,8066,7977,7960,7947,7870
847,Red Oak,Red Oak,IA,Iowa,19137,Montgomery,40.9188,-95.2656,A,10703,10655,10567,10438,10443,10227,10225
848,Stennett,Stennett,IA,Iowa,19139,Muscatine,41.5898,-91.0272,A,42735,42767,42884,42941,42961,43017,42940
849,Sheldon,Sheldon,IA,Iowa,19141,O'Brien,43.0203,-95.58,A,14398,14206,14161,14043,14062,13989,14020
850,Sanborn,Sanborn,IA,Iowa,19143,Osceola,43.4181,-95.5365,A,6453,6308,6180,6206,6193,6127,6064
851,Essex,Essex,IA,Iowa,19145,Page,40.7354,-95.1544,A,15940,15926,15750,15554,15544,15521,15391
852,Bingham,Bingham,IA,Iowa,19147,Palo Alto,42.9795,-94.7377,A,9394,9360,9281,9182,9126,9139,9047
853,Struble,Struble,IA,Iowa,19149,Plymouth,42.7207,-96.2525,A,24968,24831,24888,24945,24913,24913,25200
854,Brunsville,Brunsville,IA,Iowa,19151,Pocahontas,42.7371,-94.6661,A,7277,7218,7161,7145,7123,6991,6886
855,West Des Moines,West Des Moines,IA,Iowa,19153,Polk,41.6986,-93.4546,A,432282,437807,443821,451461,459780,466688,474045
856,Berwick,Berwick,IA,Iowa,19155,Pottawattamie,41.3922,-95.3637,A,93368,93450,92887,92814,93174,93534,93582
857,Hartwick,Hartwick,IA,Iowa,19157,Poweshiek,41.7076,-92.5575,A,18908,18867,18766,18632,18667,18512,18533
858,Searsboro,Searsboro,IA,Iowa,19159,Ringgold,40.8105,-94.3421,A,5122,5098,5082,5036,5031,5054,5068
859,Sac City,Sac City,IA,Iowa,19161,Sac,42.3118,-95.2542,A,10352,10235,10177,10050,10060,10009,9876
860,Early,Early,IA,Iowa,19163,Scott,41.5563,-90.6052,A,165747,167046,168840,170551,171546,172170,172474
861,Shelby,Shelby,IA,Iowa,19165,Shelby,41.6452,-95.1517,A,12165,12031,12082,11964,11962,11913,11800
862,Harlan,Harlan,IA,Iowa,19167,Sioux,42.9749,-96.3216,A,33733,34030,34339,34494,34622,34752,34898
863,Ames,Ames,IA,Iowa,19169,Story,41.8643,-93.6966,A,89634,90864,91799,93569,95366,96346,97090
864,Kelley,Kelley,IA,Iowa,19171,Tama,42.0793,-92.4036,A,17725,17635,17536,17512,17405,17341,17319
865,New Market,New Market,IA,Iowa,19173,Taylor,40.883,-94.5583,A,6315,6283,6237,6210,6155,6229,6216
866,Siam,Siam,IA,Iowa,19175,Union,40.9536,-94.4611,A,12520,12570,12599,12606,12621,12447,12420
867,Stockport,Stockport,IA,Iowa,19177,Van Buren,40.6712,-92.1621,A,7559,7514,7456,7438,7410,7325,7271
868,Bonaparte,Bonaparte,IA,Iowa,19179,Wapello,40.9176,-92.2177,A,35648,35434,35357,35379,35244,35248,34982
869,Cumming,Cumming,IA,Iowa,19181,Warren,41.1817,-93.7311,A,46332,46678,46991,47452,48010,48706,49691
870,Saint Marys,Saint Marys,IA,Iowa,19183,Washington,41.1747,-91.8212,A,21696,21837,21928,22017,22097,22251,22281
871,Millerton,Millerton,IA,Iowa,19185,Wayne,40.636,-93.4514,A,6400,6367,6364,6422,6392,6386,6452
872,Seymour,Seymour,IA,Iowa,19187,Webster,42.5918,-94.0198,A,37876,37727,37252,37256,36983,36992,36769
873,Rake,Rake,IA,Iowa,19189,Winnebago,43.4711,-93.6168,A,10840,10727,10634,10477,10593,10567,10631
874,Lake Mills,Lake Mills,IA,Iowa,19191,Winneshiek,43.1126,-91.677,A,21065,21045,21042,20862,20728,20754,20561
875,Bronson,Bronson,IA,Iowa,19193,Woodbury,42.2323,-96.2258,A,102363,102649,102330,102242,102314,102464,102779
876,Cushing,Cushing,IA,Iowa,19195,Worth,43.2881,-93.201,A,7583,7583,7525,7541,7605,7562,7572
877,Cornelia,Cornelia,IA,Iowa,19197,Wright,42.8466,-93.6084,A,13197,13039,13019,12969,12883,12803,12779
878,Galt,Galt,KS,Kansas,20001,Allen,37.7489,-95.143,A,13355,13344,13336,13080,12903,12724,12714
879,Mont Ida,Mont Ida,KS,Kansas,20003,Anderson,38.0812,-95.1554,A,8092,8046,7912,7845,7880,7824,7827
880,Lone Elm,Lone Elm,KS,Kansas,20005,Atchison,39.4628,-95.5364,A,16868,16778,16793,16696,16509,16409,16380
881,Hardtner,Hardtner,KS,Kansas,20007,Barber,37.0894,-98.4015,A,4838,4914,4866,4914,4878,4821,4688
882,Aetna,Aetna,KS,Kansas,20009,Barton,38.3086,-98.8906,A,27683,27676,27515,27425,27262,27092,26775
883,Garland,Garland,KS,Kansas,20011,Bourbon,37.9939,-94.8197,A,15143,14925,14844,14796,14774,14724,14617
884,Uniontown,Uniontown,KS,Kansas,20013,Brown,39.8517,-95.5381,A,9978,9989,9879,9940,9804,9745,9684
885,Douglass,Douglass,KS,Kansas,20015,Butler,37.6897,-96.7836,A,65914,65870,65781,65835,66077,66601,67025
886,Rosalia,Rosalia,KS,Kansas,20017,Chase,38.2599,-96.8215,A,2792,2789,2752,2701,2673,2676,2669
887,Niotaze,Niotaze,KS,Kansas,20019,Chautauqua,37.0409,-96.4083,A,3647,3614,3565,3546,3473,3392,3374
888,Elgin,Elgin,KS,Kansas,20021,Cherokee,37.3083,-94.7747,A,21549,21373,21201,20908,20769,20561,20246
889,Bird City,Bird City,KS,Kansas,20023,Cheyenne,39.7642,-101.7129,A,2720,2705,2677,2678,2694,2687,2661
890,Saint Francis,Saint Francis,KS,Kansas,20025,Clark,37.1868,-99.7697,A,2201,2137,2179,2194,2120,2089,2072
891,Clyde,Clyde,KS,Kansas,20029,Cloud,39.3609,-97.8371,A,8541,8513,8508,8401,8338,8340,8143
892,Saint Joseph,Saint Joseph,KS,Kansas,20031,Coffey,38.1545,-95.5519,A,9525,9405,9407,9370,9348,9235,9150
893,Wilmore,Wilmore,KS,Kansas,20033,Comanche,37.2004,-99.4808,A,8589,8515,8507,8424,8440,8359,8433
894,Coldwater,Coldwater,KS,Kansas,20035,Cowley,37.0726,-97.0385,A,1888,1885,1910,1922,1945,1839,1862
895,Franklin,Franklin,KS,Kansas,20037,Crawford,37.5093,-94.8456,A,36300,36240,36262,36181,35911,35777,35753
896,Mulberry,Mulberry,KS,Kansas,20039,Decatur,39.6806,-100.2933,A,39177,39198,39369,39312,39327,39231,39164
897,Elmo,Elmo,KS,Kansas,20041,Dickinson,38.9359,-97.1247,A,2946,2918,2877,2905,2890,2926,2832
898,Herington,Herington,KS,Kansas,20043,Doniphan,39.7667,-95.2492,A,19779,19707,19731,19477,19354,19292,19064
899,Baldwin City,Baldwin City,KS,Kansas,20045,Douglas,38.9711,-95.4561,A,7948,7951,7869,7844,7833,7756,7664
900,Lawrence,Lawrence,KS,Kansas,20047,Edwards,37.8153,-99.0857,A,111245,112424,113304,114672,116430,117915,119440
901,Longton,Longton,KS,Kansas,20049,Elk,37.3733,-96.1934,A,3050,3028,2980,2965,3022,2970,2938
902,Moline,Moline,KS,Kansas,20051,Ellis,38.7839,-99.3926,A,2873,2799,2678,2647,2699,2602,2547
903,Ellsworth,Ellsworth,KS,Kansas,20053,Ellsworth,38.5876,-98.412,A,28445,28779,29125,29089,29027,29024,28893
904,Lorraine,Lorraine,KS,Kansas,20055,Finney,38.0322,-101.0991,A,6518,6469,6471,6382,6365,6330,6328
905,Wilroads Gardens,Wilroads Gardens,KS,Kansas,20057,Ford,37.525,-99.7587,A,36957,37131,37114,37031,37048,37000,36722
906,Fort Dodge,Fort Dodge,KS,Kansas,20059,Franklin,38.6,-95.2642,A,34041,34410,34729,34829,34667,34263,33971
907,Junction City,Junction City,KS,Kansas,20061,Geary,39.173,-96.9106,A,26009,25879,25859,25770,25567,25559,25560
908,Grandview Plaza,Grandview Plaza,KS,Kansas,20063,Gove,39.0667,-100.2348,A,35284,35301,37947,36893,36682,36981,35586
909,Bogue,Bogue,KS,Kansas,20065,Graham,39.3672,-99.8462,A,2681,2691,2722,2761,2710,2657,2589
910,Morland,Morland,KS,Kansas,20067,Grant,37.5772,-101.3547,A,2606,2635,2587,2592,2553,2589,2564
911,Montezuma,Montezuma,KS,Kansas,20069,Gray,37.8653,-100.5649,A,7834,7884,7824,7822,7758,7690,7646
912,Ensign,Ensign,KS,Kansas,20071,Greeley,38.4806,-101.8061,C,6026,6104,5983,5996,6078,6095,6034
